{
  "balluta beach|Sliema": {
    "lat": 35.9120309,
    "lon": 14.4937443,
    "display_name": "Holiday - Malta Balluta Beach, 174, Triq il-Kulle\u0121\u0121 l-Antik, Tas-Sliema, Re\u0121jun tal-Lvant, SLM 1372, Malta",
    "query_used": "Balluta Beach, Sliema, Malta"
  },
  "mercury tower|Paceville": {
    "lat": 35.9227886,
    "lon": 14.4893348,
    "display_name": "Mercury Tower, Triq San \u0120or\u0121, San \u0120iljan, Re\u0121jun tal-Lvant, STJ 3200, Malta",
    "query_used": "Mercury Tower, Malta"
  },
  "junior college|Guardamangia": {
    "lat": 35.8925749,
    "lon": 14.4886728,
    "display_name": "G. F. Abela Junior College, Triq Oscar Zammit, L-Imsida, Re\u0121jun tal-Lvant, MSD 1252, Malta",
    "query_used": "Junior College, Malta"
  },
  "fort chambray|Gozo - Ghajnsielem": {
    "lat": 36.0233899,
    "lon": 14.2920684,
    "display_name": "Fort Chambray, Triq Chambray, L-Im\u0121arr, G\u0127ajnsielem, Re\u0121jun G\u0127awdex, GSM 1063, Malta",
    "query_used": "Fort Chambray, Gozo - Ghajnsielem, Malta"
  },
  "tigne|Sliema": {
    "lat": 35.9066177,
    "lon": 14.5133136,
    "display_name": "Fort Tign\u00e9, Pjazza Tign\u00e9, Tas-Sliema, Re\u0121jun tal-Lvant, TPO 0001, Malta",
    "query_used": "Tigne, Sliema, Malta"
  },
  "fort cambridge|Sliema": {
    "lat": 35.9090035,
    "lon": 14.509692,
    "display_name": "Cambridge Battery, Triq ta' Ponta ta' Dragut, Tas-Sliema, Re\u0121jun tal-Lvant, SLM 3143, Malta",
    "query_used": "Fort Cambridge, Sliema, Malta"
  },
  "sliema ferry terminal|Sliema": {
    "lat": 35.9084509,
    "lon": 14.5051641,
    "display_name": "Sliema Ferry Terminal, Ix-Xatt tal-G\u017cira, Tas-Sliema, Re\u0121jun tal-Lvant, SLM 1026, Malta",
    "query_used": "Sliema Ferry Terminal, Sliema, Malta"
  },
  "spinola|San Gwann": {
    "lat": 35.9206971,
    "lon": 14.4909349,
    "display_name": "Il-Palazz ta' Spinola, Triq il-Knisja, San \u0120iljan, Re\u0121jun tal-Lvant, STJ 3246, Malta",
    "query_used": "Spinola, Malta"
  },
  "portomaso|Paceville": {
    "lat": 35.9206867,
    "lon": 14.493595,
    "display_name": "Portomaso, San \u0120iljan, Re\u0121jun tal-Lvant, Malta",
    "query_used": "Portomaso, Malta"
  },
  "tigne point|Sliema": {
    "lat": 35.9076335,
    "lon": 14.5106248,
    "display_name": "The Point, Ix-Xatt ta' Qui-si-Sana, Tas-Sliema, Re\u0121jun tal-Lvant, TPO 0001, Malta",
    "query_used": "Tigne Point, Sliema, Malta"
  },
  "st andrews|Swieqi": {
    "lat": 35.9193791,
    "lon": 14.4803465,
    "display_name": "St Andrews Farm, Triq il-Qasam, Is-Swieqi, Re\u0121jun tal-Lvant, SGN 1881, Malta",
    "query_used": "St Andrews, Swieqi, Malta"
  },
  "ora|St Julian's": {
    "lat": 35.9278008,
    "lon": 14.488699,
    "display_name": "Hard Rock Hotel / ORA Residences, San \u0120iljan, Re\u0121jun tal-Lvant, Malta",
    "query_used": "Ora, St Julian's, Malta"
  },
  "rotunda church|Gozo - Xewkija": {
    "lat": 36.0315693,
    "lon": 14.260995,
    "display_name": "Knisja Ar\u010bipretali San \u0120wann Battista, Triq l-Ar\u010bipriet Pietru Pawl \u010aiantar, Ix-Xewkija, Re\u0121jun G\u0127awdex, XWK 1028, Malta",
    "query_used": "Rotunda Church, Gozo - Xewkija, Malta"
  },
  "three cities|Cospicua": {
    "lat": 35.8810796,
    "lon": 14.5202569,
    "display_name": "Three Cities Jewellery, Tara\u0121 il-Le\u0121\u0121enda tal-Mar\u017cabba, Bormla, Re\u0121jun tal-Port, BML 2064, Malta",
    "query_used": "Three Cities, Cospicua, Malta"
  },
  "surfside|Sliema": {
    "lat": 35.9163336,
    "lon": 14.5038088,
    "display_name": "Surfside Restaurant, Triq it-Torri, Tas-Sliema, Re\u0121jun tal-Lvant, SLM 1604, Malta",
    "query_used": "Surfside, Sliema, Malta"
  },
  "grand harbour|Cospicua": {
    "lat": 35.8838332,
    "lon": 14.520454,
    "display_name": "Grand Harbour Marina;Valletta - Three Cities, Dock No. 1, Bormla, Re\u0121jun tal-Port, BML 2064, Malta",
    "query_used": "grand harbour, Cospicua, Malta"
  },
  "marsalforn bay|Gozo - Marsalforn": {
    "lat": 36.0712984,
    "lon": 14.2595701,
    "display_name": "Marsalforn Bay, Triq il-Port, Il-Qbajjar, Marsalforn, I\u017c-\u017bebbu\u0121, Re\u0121jun G\u0127awdex, MFN 1211, Malta",
    "query_used": "Marsalforn Bay, Gozo - Marsalforn, Malta"
  },
  "st julian's|Pembroke": {
    "lat": 35.9199225,
    "lon": 14.4877119,
    "display_name": "San \u0120iljan, Re\u0121jun tal-Lvant, Malta",
    "query_used": "St Julian's, Malta"
  },
  "marina|Cospicua": {
    "lat": 35.8838332,
    "lon": 14.520454,
    "display_name": "Grand Harbour Marina;Valletta - Three Cities, Dock No. 1, Bormla, Re\u0121jun tal-Port, BML 2064, Malta",
    "query_used": "Marina, Cospicua, Malta"
  },
  "yacht marina|Cospicua": {
    "lat": 35.9038882,
    "lon": 14.4960042,
    "display_name": "Manoel Island Yacht Marina, Ix-Xatt ta' Xbiex, Ta' Xbiex, Re\u0121jun tal-Lvant, XBX 1099, Malta",
    "query_used": "Yacht Marina, Malta"
  },
  "hal far|Hal-Far": {
    "lat": 35.8197421,
    "lon": 14.5061933,
    "display_name": "\u0126al Far, Triq \u0126al Far, Bir\u017cebbu\u0121a, Re\u0121jun tan-Nofsinhar, BBG 1758, Malta",
    "query_used": "Hal Far, Hal-Far, Malta"
  },
  "st. elmo's|Valletta": {
    "lat": 35.901984,
    "lon": 14.5188059,
    "display_name": "Fort Saint Elmo, Misra\u0127 Sant' Iermu, Diju Balli, Il-Belt Valletta, Re\u0121jun tal-Port, VLT 1645, Malta",
    "query_used": "St. Elmo's, Valletta, Malta"
  },
  "sliema ferries|Sliema": {
    "lat": 35.9088332,
    "lon": 14.5042821,
    "display_name": "Tas-Sliema - Ferries 2, Ix-Xatt tal-G\u017cira, Tas-Sliema, Re\u0121jun tal-Lvant, SLM 1025, Malta",
    "query_used": "Sliema Ferries, Sliema, Malta"
  },
  "balluta bay|Gzira": {
    "lat": 35.9154135,
    "lon": 14.4943232,
    "display_name": "Il-Bajja ta' Balluta, Malta",
    "query_used": "Balluta Bay, Malta"
  },
  "general hospital|Gozo - Victoria": {
    "lat": 36.0396266,
    "lon": 14.2454507,
    "display_name": "VGH Gozo General Hospital, Triq G\u0127ajn Qatet, Rabat, Ir-Rabat, Re\u0121jun G\u0127awdex, VCT 2520, Malta",
    "query_used": "General Hospital, Gozo - Victoria, Malta"
  },
  "xwejni bay|Gozo - Marsalforn": {
    "lat": 36.0791713,
    "lon": 14.2480852,
    "display_name": "Il-Bajja tax-Xwejni, Il-Qbajjar, Marsalforn, MFN 1211, Malta",
    "query_used": "Xwejni Bay, Malta"
  },
  "the strand|Gzira": {
    "lat": 35.9082085,
    "lon": 14.5011922,
    "display_name": "Ix-Xatt tal-G\u017cira, Tas-Sliema, Re\u0121jun tal-Lvant, SLM 1020, Malta",
    "query_used": "the Strand, Gzira, Malta"
  },
  "gozo general hospital|Gozo - Victoria": {
    "lat": 36.0396266,
    "lon": 14.2454507,
    "display_name": "VGH Gozo General Hospital, Triq G\u0127ajn Qatet, Rabat, Ir-Rabat, Re\u0121jun G\u0127awdex, VCT 2520, Malta",
    "query_used": "Gozo General Hospital, Gozo - Victoria, Malta"
  },
  "manoel island|Gzira": {
    "lat": 35.9033152,
    "lon": 14.5019463,
    "display_name": "Il-G\u017cira Manoel, Il-G\u017cira, Re\u0121jun tal-Lvant, Malta",
    "query_used": "Manoel Island, Gzira, Malta"
  },
  "spinola bay|Sliema": {
    "lat": 35.9189835,
    "lon": 14.4919983,
    "display_name": "Ix-Xatt ta\u2019 Spinola, STJ 3013, Malta",
    "query_used": "Spinola Bay, Malta"
  },
  "st john's co-cathedral|Valletta": {
    "lat": 35.8976958,
    "lon": 14.5126286,
    "display_name": "Saint John's Co-Cathedral, Triq San \u0120wann, Il-Belt Valletta, Re\u0121jun tal-Port, VLT 1113, Malta",
    "query_used": "St John's Co-Cathedral, Valletta, Malta"
  },
  "mdina|Attard": {
    "lat": 35.8876535,
    "lon": 14.4345807,
    "display_name": "Triq l-Imdina, \u0126'Attard, Re\u0121jun tat-Tramuntana, ATD 1433, Malta",
    "query_used": "Mdina, Attard, Malta"
  },
  "salina|Naxxar": {
    "lat": 35.9460559,
    "lon": 14.4229619,
    "display_name": "Salina Nature Park, In-Naxxar, Re\u0121jun tat-Tramuntana, Malta",
    "query_used": "Salina, Naxxar, Malta"
  },
  "bugibba|Bugibba": {
    "lat": 35.9487277,
    "lon": 14.4095572,
    "display_name": "Bu\u0121ibba, San Pawl il-Ba\u0127ar, Re\u0121jun tat-Tramuntana, Malta",
    "query_used": "Bugibba, Bugibba, Malta"
  },
  "mosta football ground|Mosta": {
    "lat": 35.9046869,
    "lon": 14.4346099,
    "display_name": "Il-Grawnd ta' Charles Abela, Triq il-Manwella, Tad-Daqqaq, Ta' Mlit, Il-Mosta, Re\u0121jun tat-Tramuntana, MST 9017, Malta",
    "query_used": "Mosta football ground, Mosta, Malta"
  },
  "bugibba promenade|Bugibba": {
    "lat": 35.9492981,
    "lon": 14.4070138,
    "display_name": "Saint Paul's shipwreck on Malta, Dawret il-G\u017cejjer, Bu\u0121ibba, San Pawl il-Ba\u0127ar, Re\u0121jun tat-Tramuntana, SPB 3256, Malta",
    "query_used": "Bugibba promenade, Bugibba, Malta"
  },
  "qui-si-sana|Sliema": {
    "lat": 35.9104675,
    "lon": 14.5104954,
    "display_name": "Qui Si Sana, Ix-Xatt ta' Qui-si-Sana, Tas-Sliema, Re\u0121jun tal-Lvant, SLM 3112, Malta",
    "query_used": "Qui-Si-Sana, Sliema, Malta"
  },
  "santa venera|Birkirkara": {
    "lat": 35.8890022,
    "lon": 14.4712489,
    "display_name": "Methode Electronics Malta, Triq l-G\u0127olja, Birkirkara, Re\u0121jun tal-Lvant, CBD 3020, Malta",
    "query_used": "Santa Venera, Birkirkara, Malta"
  },
  "marsalforn|Gozo - Marsalforn": {
    "lat": 36.0613833,
    "lon": 14.2551875,
    "display_name": "Triq Marsalforn, Marsalforn, I\u017c-\u017bebbu\u0121, Re\u0121jun G\u0127awdex, XRA 1521, Malta",
    "query_used": "Marsalforn, Gozo - Marsalforn, Malta"
  },
  "xghajra|Zabbar": {
    "lat": 35.8778952,
    "lon": 14.5409137,
    "display_name": "Triq ix-Xg\u0127ajra, Qasam tad-Djar ta' Bulebel, \u0126a\u017c-\u017babbar, Re\u0121jun tal-Port, ZBR 1017, Malta",
    "query_used": "Xghajra, Zabbar, Malta"
  },
  "tal-virt\u00f9|Rabat": {
    "lat": 35.8736417,
    "lon": 14.3996814,
    "display_name": "Tal-Virt\u00f9, Ir-Rabat, Re\u0121jun tal-Punent, RBT 2653, Malta",
    "query_used": "Tal-Virt\u00f9, Rabat, Malta"
  },
  "st. paul's bay|Bugibba": {
    "lat": 35.9412218,
    "lon": 14.4198165,
    "display_name": "Bird Park Malta, Triq tal-Imdawra, Burmarrad, Bu\u0121ibba, San Pawl il-Ba\u0127ar, Re\u0121jun tat-Tramuntana, NXR 6057, Malta",
    "query_used": "St. Paul's Bay, Bugibba, Malta"
  },
  "st thomas bay|Marsascala": {
    "lat": 35.8529121,
    "lon": 14.5687119,
    "display_name": "Il-Bajja ta' San Tumas, MSK 3043, Malta",
    "query_used": "St Thomas Bay, Malta"
  },
  "sannat cliffs|Gozo - Sannat": {
    "lat": 36.0218261,
    "lon": 14.2248205,
    "display_name": "Sannat Cliffs, Il-Munxar, Re\u0121jun G\u0127awdex, XLN 1101, Malta",
    "query_used": "Sannat Cliffs, Malta"
  },
  "st. peter\u2019s|Zabbar": {
    "lat": 35.8857324,
    "lon": 14.5408355,
    "display_name": "Il-Batterija ta' San Pietru, Triq San Leonardu, \u0126a\u017c-\u017babbar, Re\u0121jun tal-Port, SCM 1001, Malta",
    "query_used": "St. Peter\u2019s, Zabbar, Malta"
  },
  "l/o kalkara|Xghajra": {
    "lat": 35.8919482,
    "lon": 14.5254053,
    "display_name": "Triq l-Isptar Navali, Il-Kalkara, Re\u0121jun tal-Port, KKR 1320, Malta",
    "query_used": "l/o Kalkara, Malta"
  },
  "ta' xbiex|Gzira": {
    "lat": 35.9016954,
    "lon": 14.4929062,
    "display_name": "Ta' Xbiex - Enrico, Triq l-Imsida, Il-G\u017cira, Re\u0121jun tal-Lvant, XBX 1407, Malta",
    "query_used": "Ta' Xbiex, Gzira, Malta"
  },
  "university of malta|Gzira": {
    "lat": 35.9020939,
    "lon": 14.4834634,
    "display_name": "L-Universit\u00e0 ta' Malta, Il-Kwadranglu tal-Universit\u00e0, L-Imsida, Re\u0121jun tal-Lvant, MSD 2080, Malta",
    "query_used": "University of Malta, Malta"
  },
  "st peter's|Zabbar": {
    "lat": 35.8857324,
    "lon": 14.5408355,
    "display_name": "Il-Batterija ta' San Pietru, Triq San Leonardu, \u0126a\u017c-\u017babbar, Re\u0121jun tal-Port, SCM 1001, Malta",
    "query_used": "St Peter's, Zabbar, Malta"
  },
  "zebbiegh|Mgarr": {
    "lat": 35.919825,
    "lon": 14.3763807,
    "display_name": "I\u017c-\u017bebbieg\u0127, L-Im\u0121arr, Re\u0121jun tat-Tramuntana, MGR 1502, Malta",
    "query_used": "Zebbiegh, Mgarr, Malta"
  },
  "qawra promenade|Qawra": {
    "lat": 35.9586039,
    "lon": 14.4231545,
    "display_name": "Malta National Aquarium, Triq it-Trun\u010biera, Il-Qawra, San Pawl il-Ba\u0127ar, Re\u0121jun tat-Tramuntana, SPB 1500, Malta",
    "query_used": "Qawra promenade, Qawra, Malta"
  },
  "mensija|San Gwann": {
    "lat": 35.9090718,
    "lon": 14.4783525,
    "display_name": "Triq tal-Mensija, San \u0120wann, Re\u0121jun tat-Tramuntana, SGN 9030, Malta",
    "query_used": "Mensija, San Gwann, Malta"
  },
  "ta\u2019 \u010ben\u010b cliffs|Gozo - Sannat": {
    "lat": 36.0139281,
    "lon": 14.2557258,
    "display_name": "Ta' \u010aen\u010b Cliff, Ta' Sannat, Re\u0121jun G\u0127awdex, Malta",
    "query_used": "Ta\u2019 \u010aen\u010b cliffs, Gozo - Sannat, Malta"
  },
  "st. thomas|Marsascala": {
    "lat": 35.8586605,
    "lon": 14.5666233,
    "display_name": "Kulle\u0121\u0121 San Tumas, Triq il-Lampuka, Wied il-G\u0127ajn, Re\u0121jun tan-Nofsinhar, MSK 3043, Malta",
    "query_used": "St. Thomas, Marsascala, Malta"
  },
  "dingli cliffs|Dingli": {
    "lat": 35.8548318,
    "lon": 14.3774287,
    "display_name": "L-Irdum ta\u2019 \u0126ad-Dingli, \u0126ad-Dingli, Re\u0121jun tal-Punent, Malta",
    "query_used": "Dingli Cliffs, Dingli, Malta"
  },
  "valletta|Floriana": {
    "lat": 35.8953842,
    "lon": 14.5070344,
    "display_name": "The Phoenicia, Vjal ir-Re Dwardu VII, Il-Furjana, Re\u0121jun tal-Port, FRN 1400, Malta",
    "query_used": "Valletta, Floriana, Malta"
  },
  "birgu waterfront|Cospicua": {
    "lat": 35.8905129,
    "lon": 14.51922,
    "display_name": "Il-Pont tax-Xatt tal-Birgu, Il-Birgu, Re\u0121jun tal-Port, BRG 1721, Malta",
    "query_used": "Birgu Waterfront, Malta"
  },
  "promenade|Birzebbuga": {
    "lat": 35.8296275,
    "lon": 14.5311122,
    "display_name": "Dawret il-Qalb Imqaddsa, Il-Qajjenza, Bir\u017cebbu\u0121a, Re\u0121jun tan-Nofsinhar, BBG 1651, Malta",
    "query_used": "promenade, Birzebbuga, Malta"
  },
  "st paul's bay|Bugibba": {
    "lat": 35.9412218,
    "lon": 14.4198165,
    "display_name": "Bird Park Malta, Triq tal-Imdawra, Burmarrad, Bu\u0121ibba, San Pawl il-Ba\u0127ar, Re\u0121jun tat-Tramuntana, NXR 6057, Malta",
    "query_used": "ST PAUL'S BAY, Bugibba, Malta"
  },
  "st.thomas bay|Marsascala": {
    "lat": 35.8529121,
    "lon": 14.5687119,
    "display_name": "Il-Bajja ta' San Tumas, MSK 3043, Malta",
    "query_used": "St.Thomas Bay, Malta"
  },
  "\u0127al farru\u0121|Qormi": {
    "lat": 35.8642539,
    "lon": 14.4818547,
    "display_name": "\u0126al Farru\u0121 - Schinas, Triq \u0126al Qormi, \u0126al Luqa, Re\u0121jun tan-Nofsinhar, LQA 3301, Malta",
    "query_used": "\u0126al Farru\u0121, Qormi, Malta"
  },
  "buskett|Dingli": {
    "lat": 35.8664975,
    "lon": 14.3954217,
    "display_name": "Triq il-Buskett, \u0126ad-Dingli, Re\u0121jun tal-Punent, RBT 2705, Malta",
    "query_used": "Buskett, Dingli, Malta"
  },
  "exiles beach|Sliema": {
    "lat": 35.9184304,
    "lon": 14.4987241,
    "display_name": "Exiles Club, Triq it-Torri, Tas-Sliema, Re\u0121jun tal-Lvant, SLM 1601, Malta",
    "query_used": "Exiles beach, Sliema, Malta"
  },
  "waterfront|Floriana": {
    "lat": 35.8900644,
    "lon": 14.5079974,
    "display_name": "Il-Waterfront tal-Belt, Il-Furjana, Re\u0121jun tal-Port, FRN 1913, Malta",
    "query_used": "waterfront, Floriana, Malta"
  },
  "the three cities|Senglea": {
    "lat": 35.8849491,
    "lon": 14.5235737,
    "display_name": "Discover the Three Cities, Triq il-\u0120ublew tal-Fidda, Bormla, Re\u0121jun tal-Port, BRG 1810, Malta",
    "query_used": "The Three Cities, Malta"
  },
  "mellieha bay|Mellieha": {
    "lat": 35.9709599,
    "lon": 14.3497905,
    "display_name": "Il-Bajja tal-G\u0127adira, Il-Mellie\u0127a, Re\u0121jun tat-Tramuntana, Malta",
    "query_used": "Mellieha Bay, Mellieha, Malta"
  },
  "the shoreline|Kalkara": {
    "lat": 35.8921093,
    "lon": 14.5415285,
    "display_name": "The Shoreline Mall, Triq Santu Rokku, Smart City Malta, Il-Kalkara, Re\u0121jun tal-Port, SCM 1001, Malta",
    "query_used": "The Shoreline, Kalkara, Malta"
  },
  "main square|Birkirkara": {
    "lat": 35.8878463,
    "lon": 14.5222508,
    "display_name": "Main Square, Triq il-Lbi\u010b, Il-Birgu, Re\u0121jun tal-Port, BRG 1425, Malta",
    "query_used": "Main Square, Malta"
  },
  "the gardens|St Julian's": {
    "lat": 36.0459971,
    "lon": 14.240304,
    "display_name": "The Ditch Gardens, Ir-Rabat, Re\u0121jun G\u0127awdex, VCT 1831, Malta",
    "query_used": "The Gardens, Malta"
  },
  "selmun|Mellieha": {
    "lat": 35.9560275,
    "lon": 14.3789395,
    "display_name": "Is-Selmun, Il-Mellie\u0127a, Re\u0121jun tat-Tramuntana, SPB 9028, Malta",
    "query_used": "Selmun, Mellieha, Malta"
  },
  "ta\u2019 cenc cliffs|Gozo - Sannat": {
    "lat": 36.0139281,
    "lon": 14.2557258,
    "display_name": "Ta' \u010aen\u010b Cliff, Ta' Sannat, Re\u0121jun G\u0127awdex, Malta",
    "query_used": "Ta\u2019 Cenc cliffs, Gozo - Sannat, Malta"
  },
  "verdala terraces|Rabat": {
    "lat": 35.8778133,
    "lon": 14.4036123,
    "display_name": "Verdala Terraces, Tal-Virt\u00f9, Ir-Rabat, Re\u0121jun tal-Punent, RBT 2418, Malta",
    "query_used": "Verdala Terraces, Rabat, Malta"
  },
  "imriehel|Santa Venera": {
    "lat": 35.8890022,
    "lon": 14.4712489,
    "display_name": "Methode Electronics Malta, Triq Pietru Dacoutros, L-Imrie\u0127el, Birkirkara, Re\u0121jun tal-Lvant, SVR 9030, Malta",
    "query_used": "Imriehel, Santa Venera, Malta"
  },
  "ta\u2019 l-ibrag|Swieqi": {
    "lat": 35.8358636,
    "lon": 14.4877347,
    "display_name": "Triq l-Ibra\u0121, \u0126al Safi, Re\u0121jun tal-Punent, ZRQ 1089, Malta",
    "query_used": "Ta\u2019 l-Ibrag, Malta"
  },
  "tigne\u2019 seafront|Sliema": {
    "lat": 35.9067768,
    "lon": 14.5091588,
    "display_name": "Ix-Xatt ta' Tign\u00e9, Tas-Sliema, Re\u0121jun tal-Lvant, SLM 3052, Malta",
    "query_used": "Tigne\u2019 Seafront, Sliema, Malta"
  },
  "st julians|Swieqi": {
    "lat": 35.9172612,
    "lon": 14.4931084,
    "display_name": "Saint Julians Pharmacy, Triq \u0120or\u0121 Bor\u0121 Olivier, San \u0120iljan, Re\u0121jun tal-Lvant, STJ 3019, Malta",
    "query_used": "St Julians, Malta"
  },
  "il-mizieb|Mellieha": {
    "lat": 35.9493976,
    "lon": 14.3655869,
    "display_name": "Il-Mi\u017cieb, Il-Manikata, Il-Mellie\u0127a, Re\u0121jun tat-Tramuntana, MLH 1472, Malta",
    "query_used": "Il-Mizieb, Mellieha, Malta"
  },
  "tign\u00e9 point|Sliema": {
    "lat": 35.9076335,
    "lon": 14.5106248,
    "display_name": "The Point, Ix-Xatt ta' Qui-si-Sana, Tas-Sliema, Re\u0121jun tal-Lvant, TPO 0001, Malta",
    "query_used": "Tign\u00e9 Point, Sliema, Malta"
  },
  "tas-salib|Rabat": {
    "lat": 35.9012689,
    "lon": 14.3787367,
    "display_name": "Triq Tas-Salib, Ir-Rabat, Re\u0121jun tal-Punent, MGR 1502, Malta",
    "query_used": "Tas-Salib, Rabat, Malta"
  },
  "mellieha parish church|Mellieha": {
    "lat": 35.9607987,
    "lon": 14.3608681,
    "display_name": "Knisja Ar\u010bipretali ta\u2019 Marija Bambina, Triq is-Santwarju, Il-Mellie\u0127a, Re\u0121jun tat-Tramuntana, MLH 1245, Malta",
    "query_used": "Mellieha Parish Church, Mellieha, Malta"
  },
  "burmarrad|Naxxar": {
    "lat": 35.9279256,
    "lon": 14.4330167,
    "display_name": "Qasam Industrijali Burmarrad, Y&P Complex, In-Naxxar, Re\u0121jun tat-Tramuntana, NXR 6345, Malta",
    "query_used": "Burmarrad, Naxxar, Malta"
  },
  "st george\u2019s bay|St Julian's": {
    "lat": 35.9287656,
    "lon": 14.490953,
    "display_name": "Corinthia (Saint George's Bay), Ix-Xatt ta' San \u0120or\u0121, San \u0120iljan, Re\u0121jun tal-Lvant, STJ 3301, Malta",
    "query_used": "St George\u2019s Bay, St Julian's, Malta"
  },
  "st. george's bay|Birzebbuga": {
    "lat": 35.8320127,
    "lon": 14.5306118,
    "display_name": "Il-Bajja ta' San \u0120or\u0121, Il-Qajjenza, Bir\u017cebbu\u0121a, Re\u0121jun tan-Nofsinhar, Malta",
    "query_used": "St. George's Bay, Birzebbuga, Malta"
  },
  "parish church|Birkirkara": {
    "lat": 35.8999497,
    "lon": 14.4653383,
    "display_name": "Sant' Elena, Triq Mike Pulis, L-Imrie\u0127el, Birkirkara, Re\u0121jun tal-Lvant, BKR 2502, Malta",
    "query_used": "parish church, Birkirkara, Malta"
  },
  "ta' paris|Birkirkara": {
    "lat": 35.8983386,
    "lon": 14.4729027,
    "display_name": "Qasam tad-Djar Ta' Paris, L-Imrie\u0127el, Birkirkara, Re\u0121jun tal-Lvant, Malta",
    "query_used": "Ta' Paris, Birkirkara, Malta"
  },
  "tas-silg|Marsaxlokk": {
    "lat": 35.84589,
    "lon": 14.5518907,
    "display_name": "Tas-Sil\u0121, Triq Xrobb l-G\u0127a\u0121in, Marsaxlokk, Re\u0121jun tan-Nofsinhar, MXK 9044, Malta",
    "query_used": "Tas-Silg, Marsaxlokk, Malta"
  },
  "ramla bay|Gozo - Nadur": {
    "lat": 36.0605023,
    "lon": 14.2831037,
    "display_name": "Information centre and ranger station, Triq ir-Ramla, Ix-Xag\u0127ra, Re\u0121jun G\u0127awdex, XRA 2706, Malta",
    "query_used": "Ramla Bay, Gozo - Nadur, Malta"
  },
  "blue grotto|Zurrieq": {
    "lat": 35.8212727,
    "lon": 14.456547,
    "display_name": "Ta\u0127t il-\u0126nejja, Triq Congr\u00e8ve, Wied i\u017c-\u017burrieq, Il-Qrendi, Re\u0121jun tal-Punent, QRD 3043, Malta",
    "query_used": "Blue Grotto, Zurrieq, Malta"
  },
  "mosta church|Mosta": {
    "lat": 35.910083,
    "lon": 14.4258096,
    "display_name": "Ba\u017cilika ta' Santa Marija, Pjazza Rotunda, Ta' Redusa, Ta' Mlit, Il-Mosta, Re\u0121jun tat-Tramuntana, MST 9058, Malta",
    "query_used": "Mosta Church, Mosta, Malta"
  },
  "ghadira|Mellieha": {
    "lat": 35.9708754,
    "lon": 14.3488805,
    "display_name": "Ir-Riserva Naturali tal-G\u0127adira, Il-Mellie\u0127a, Re\u0121jun tat-Tramuntana, Malta",
    "query_used": "Ghadira, Mellieha, Malta"
  },
  "xlendi bay|Gozo - Fontana": {
    "lat": 36.0298848,
    "lon": 14.2161926,
    "display_name": "Il-Bajja tax-Xlendi, Ix-Xlendi, SNT 9020, Malta",
    "query_used": "Xlendi Bay, Malta"
  },
  "university|Gzira": {
    "lat": 35.9013858,
    "lon": 14.487401,
    "display_name": "University Football Grounds, Triq l-Universit\u00e0, L-Imsida, Re\u0121jun tal-Lvant, GZR 1712, Malta",
    "query_used": "University, Gzira, Malta"
  },
  "ora residences|St Julian's": {
    "lat": 35.9278008,
    "lon": 14.488699,
    "display_name": "Hard Rock Hotel / ORA Residences, San \u0120iljan, Re\u0121jun tal-Lvant, Malta",
    "query_used": "ORA Residences, St Julian's, Malta"
  },
  "mellieha church|Mellieha": {
    "lat": 35.9603687,
    "lon": 14.3612327,
    "display_name": "Santwarju tal-Madonna tal-Mellie\u0127a, Pjazza \u0120wanni Pawlu II, Il-Mellie\u0127a, Re\u0121jun tat-Tramuntana, MLH 2317, Malta",
    "query_used": "Mellieha Church, Mellieha, Malta"
  },
  "church|Bahar Ic-Caghaq": {
    "lat": 35.8712491,
    "lon": 14.4421878,
    "display_name": "Il-Knisja ta' San Filep t'Agira, I\u017c-\u017bebbu\u0121, Triq il-Knisja, \u0126a\u017c-\u017bebbu\u0121, \u0126al Dwin, \u0126a\u017c-\u017bebbu\u0121, Re\u0121jun tal-Punent, ZBG 1011, Malta",
    "query_used": "church, Malta"
  },
  "handaq|Qormi": {
    "lat": 35.8701712,
    "lon": 14.4691903,
    "display_name": "Tal-\u0126andaq, \u0126al Qormi, Re\u0121jun tan-Nofsinhar, QRM 3613, Malta",
    "query_used": "Handaq, Qormi, Malta"
  },
  "gardjola gardens|Senglea": {
    "lat": 35.890474,
    "lon": 14.5141631,
    "display_name": "Gardjola Gardens, L-Isla, Re\u0121jun tal-Port, Malta",
    "query_used": "Gardjola Gardens, Senglea, Malta"
  },
  "sliema tower road|Sliema": {
    "lat": 35.9144329,
    "lon": 14.5070729,
    "display_name": "Malta Blue Diving Shop, Triq it-Torri, Tas-Sliema, Re\u0121jun tal-Lvant, SLM 1604, Malta",
    "query_used": "Sliema Tower Road, Sliema, Malta"
  },
  "st venera|Hamrun": {
    "lat": 35.886575,
    "lon": 14.4872239,
    "display_name": "Il-Knisja ta' San Gejtanu, Triq il-Kbira San \u0120u\u017cepp, Il-\u0126amrun, Re\u0121jun tan-Nofsinhar, SVR 1759, Malta",
    "query_used": "St Venera, Hamrun, Malta"
  },
  "san pawl tat-targa|Birguma": {
    "lat": 35.9207237,
    "lon": 14.4408857,
    "display_name": "San Pawl tat-Tar\u0121a, In-Naxxar, Re\u0121jun tat-Tramuntana, NXR 1560, Malta",
    "query_used": "San Pawl tat-Targa, Malta"
  },
  "st. paul\u2019s bay|Bugibba": {
    "lat": 35.9412218,
    "lon": 14.4198165,
    "display_name": "Bird Park Malta, Triq tal-Imdawra, Burmarrad, Bu\u0121ibba, San Pawl il-Ba\u0127ar, Re\u0121jun tat-Tramuntana, NXR 6057, Malta",
    "query_used": "St. Paul\u2019s Bay, Bugibba, Malta"
  },
  "tign\u00e9 seafront|Sliema": {
    "lat": 35.9067768,
    "lon": 14.5091588,
    "display_name": "Ix-Xatt ta' Tign\u00e9, Tas-Sliema, Re\u0121jun tal-Lvant, SLM 3052, Malta",
    "query_used": "Tign\u00e9 Seafront, Sliema, Malta"
  },
  "mater dei hospital|Birkirkara": {
    "lat": 35.901894,
    "lon": 14.4766021,
    "display_name": "Sptar Mater Dei, Triq Dun Karm, Birkirkara, Re\u0121jun tal-Lvant, BKR 4019, Malta",
    "query_used": "Mater Dei Hospital, Birkirkara, Malta"
  },
  "tal-virtu|Rabat": {
    "lat": 35.8736417,
    "lon": 14.3996814,
    "display_name": "Tal-Virt\u00f9, Ir-Rabat, Re\u0121jun tal-Punent, RBT 2653, Malta",
    "query_used": "Tal-Virtu, Rabat, Malta"
  },
  "birgu|Vittoriosa": {
    "lat": 35.8877699,
    "lon": 14.5207842,
    "display_name": "Mu\u017cew Marittimu ta' Malta, Triq San Lawrenz, Il-Birgu, Re\u0121jun tal-Port, BRG 1721, Malta",
    "query_used": "Birgu, Vittoriosa, Malta"
  },
  "bugibba square|Bugibba": {
    "lat": 35.9514751,
    "lon": 14.4139368,
    "display_name": "McDonald's, Misra\u0127 il-Bajja, Bu\u0121ibba, San Pawl il-Ba\u0127ar, Re\u0121jun tat-Tramuntana, SPB 2511, Malta",
    "query_used": "Bugibba Square, Bugibba, Malta"
  },
  "tal- papa|Birzebbuga": {
    "lat": 35.8201486,
    "lon": 14.524584,
    "display_name": "Tal-Papa, Bir\u017cebbu\u0121a, Re\u0121jun tan-Nofsinhar, Malta",
    "query_used": "tal- Papa, Birzebbuga, Malta"
  },
  "fleur de lys|Birkirkara": {
    "lat": 35.892982,
    "lon": 14.4716185,
    "display_name": "Fleur-de-Lys, Birkirkara, Re\u0121jun tal-Lvant, Malta",
    "query_used": "Fleur De Lys, Birkirkara, Malta"
  },
  "birkirkara|Mriehel": {
    "lat": 35.8994577,
    "lon": 14.4649552,
    "display_name": "Birkirkara, Re\u0121jun tal-Lvant, Malta",
    "query_used": "Birkirkara, Malta"
  },
  "swatar|Birkirkara": {
    "lat": 35.8983464,
    "lon": 14.4780686,
    "display_name": "Triq is-Swatar, L-Imsida, Re\u0121jun tal-Lvant, MSD 2250, Malta",
    "query_used": "Swatar, Birkirkara, Malta"
  },
  "harbour|Gozo - Ghajnsielem": {
    "lat": 35.8962147,
    "lon": 14.5140917,
    "display_name": "ION Harbour By Simon Rogan, 11, Is-Sur ta' Santa Barbara, L-Ar\u010bipierku, Il-Belt Valletta, Re\u0121jun tal-Port, VLT 1232, Malta",
    "query_used": "harbour, Malta"
  },
  "the point|Sliema": {
    "lat": 35.9076335,
    "lon": 14.5106248,
    "display_name": "The Point, Ix-Xatt ta' Qui-si-Sana, Tas-Sliema, Re\u0121jun tal-Lvant, TPO 0001, Malta",
    "query_used": "THE POINT, Sliema, Malta"
  },
  "zonqor|Marsascala": {
    "lat": 35.8682775,
    "lon": 14.5642922,
    "display_name": "Batterija ta\u017c-\u017bonqor, Triq il-Batterija ta\u017c-\u017bonqor, Wied il-G\u0127ajn, Re\u0121jun tan-Nofsinhar, MSK 1015, Malta",
    "query_used": "Zonqor, Marsascala, Malta"
  },
  "birguma|Birguma": {
    "lat": 35.924616,
    "lon": 14.4444889,
    "display_name": "Triq Birguma, San Pawl tat-Tar\u0121a, In-Naxxar, Re\u0121jun tat-Tramuntana, GHR 1305, Malta",
    "query_used": "Birguma, Malta"
  },
  "hal-farrug|Luqa": {
    "lat": 35.8548625,
    "lon": 14.4669283,
    "display_name": "SR Technics Malta, Triq \u0126al Farru\u0121, \u0126al Luqa, Re\u0121jun tan-Nofsinhar, LQA 1039, Malta",
    "query_used": "Hal-Farrug, Luqa, Malta"
  },
  "bingemma|Bingemma": {
    "lat": 35.9105969,
    "lon": 14.3743798,
    "display_name": "Bin\u0121emma, L-Im\u0121arr, Re\u0121jun tat-Tramuntana, MGR 1502, Malta",
    "query_used": "Bingemma, Malta"
  },
  "san pawl tat-tar\u0121a|Naxxar": {
    "lat": 35.9207237,
    "lon": 14.4408857,
    "display_name": "San Pawl tat-Tar\u0121a, In-Naxxar, Re\u0121jun tat-Tramuntana, NXR 1560, Malta",
    "query_used": "San Pawl tat-Tar\u0121a, Naxxar, Malta"
  },
  "mosta dome|Mosta": {
    "lat": 35.910083,
    "lon": 14.4258096,
    "display_name": "Ba\u017cilika ta' Santa Marija, Pjazza Rotunda, Ta' Redusa, Ta' Mlit, Il-Mosta, Re\u0121jun tat-Tramuntana, MST 9058, Malta",
    "query_used": "Mosta Dome, Mosta, Malta"
  },
  "kappara|Kappara": {
    "lat": 35.9057122,
    "lon": 14.4772209,
    "display_name": "Ir-Razzett ta' Xindi, Triq San \u0120iljan, San \u0120wann, Re\u0121jun tat-Tramuntana, SGN 2416, Malta",
    "query_used": "Kappara, Malta"
  },
  "strand|Gzira": {
    "lat": 35.9082085,
    "lon": 14.5011922,
    "display_name": "Ix-Xatt tal-G\u017cira, Tas-Sliema, Re\u0121jun tal-Lvant, SLM 1020, Malta",
    "query_used": "Strand, Gzira, Malta"
  },
  "ta' qali|Attard": {
    "lat": 35.8923492,
    "lon": 14.4196785,
    "display_name": "Ta' Qali, \u0126'Attard, Re\u0121jun tat-Tramuntana, ATD 4000, Malta",
    "query_used": "Ta' Qali, Attard, Malta"
  },
  "smart city|Kalkara": {
    "lat": 35.8912447,
    "lon": 14.5401632,
    "display_name": "Smart City Malta, Il-Kalkara, Re\u0121jun tal-Port, SCM 1001, Malta",
    "query_used": "Smart City, Kalkara, Malta"
  },
  "malta international airport|Ghaxaq": {
    "lat": 35.84741,
    "lon": 14.4922871,
    "display_name": "Ajruport Internazzjonali ta' Malta, Vjal it-Torri, Il-Gudja, Re\u0121jun tan-Nofsinhar, LQA 4000, Malta",
    "query_used": "Malta International Airport, Malta"
  },
  "chadwick lakes|Rabat": {
    "lat": 35.8916065,
    "lon": 14.3892193,
    "display_name": "Chadwick Lakes, Triq ta' Slampa, Ir-Rabat, Re\u0121jun tal-Punent, RBT 4017, Malta",
    "query_used": "Chadwick Lakes, Rabat, Malta"
  },
  "kennedy grove|Qawra": {
    "lat": 35.9447572,
    "lon": 14.4185779,
    "display_name": "Kennedy Grove, Bu\u0121ibba, San Pawl il-Ba\u0127ar, Re\u0121jun tat-Tramuntana, Malta",
    "query_used": "Kennedy Grove, Qawra, Malta"
  },
  "pretty bay|Birzebbuga": {
    "lat": 35.8248109,
    "lon": 14.5293915,
    "display_name": "Pretty Bay, Il-Qajjenza, Bir\u017cebbu\u0121a, Re\u0121jun tan-Nofsinhar, Malta",
    "query_used": "Pretty Bay, Birzebbuga, Malta"
  },
  "xlendi|Gozo - Xlendi": {
    "lat": 36.0302679,
    "lon": 14.2171871,
    "display_name": "Xlendi, Ix-Xlendi, Il-Munxar, Re\u0121jun G\u0127awdex, Malta",
    "query_used": "Xlendi, Gozo - Xlendi, Malta"
  },
  "seafront|Bahar Ic-Caghaq": {
    "lat": 35.9091112,
    "lon": 14.5106012,
    "display_name": "Ix-Xatt ta' Qui-si-Sana, Tas-Sliema, Re\u0121jun tal-Lvant, SLM 3143, Malta",
    "query_used": "seafront, Malta"
  },
  "ta\u2019 paris|Birkirkara": {
    "lat": 35.8983386,
    "lon": 14.4729027,
    "display_name": "Qasam tad-Djar Ta' Paris, L-Imrie\u0127el, Birkirkara, Re\u0121jun tal-Lvant, Malta",
    "query_used": "Ta\u2019 Paris, Birkirkara, Malta"
  },
  "kempinski san lawrenz|Gozo - San Lawrenz": {
    "lat": 36.0528846,
    "lon": 14.2079255,
    "display_name": "Kempinski San Lawrenz, Triq ir-Rokon, San Lawrenz, Re\u0121jun G\u0127awdex, SLZ 1040, Malta",
    "query_used": "Kempinski San Lawrenz, Gozo - San Lawrenz, Malta"
  },
  "ta\u2019 masrija|Mellieha": {
    "lat": 35.9531318,
    "lon": 14.3660203,
    "display_name": "Ta' Masrija, Il-Manikata, Il-Mellie\u0127a, Re\u0121jun tat-Tramuntana, Malta",
    "query_used": "Ta\u2019 Masrija, Mellieha, Malta"
  },
  "mater dei|Birkirkara": {
    "lat": 35.9019175,
    "lon": 14.4756107,
    "display_name": "Mater Dei - Sptar 1, Triq id-Donaturi tad-Demm, L-Imsida, Re\u0121jun tal-Lvant, BKR 4019, Malta",
    "query_used": "Mater Dei, Birkirkara, Malta"
  },
  "mriehel bypass|Birkirkara": {
    "lat": 35.8910684,
    "lon": 14.4580276,
    "display_name": "Vjal ir-Royal Malta Artillery, L-Imrie\u0127el, Birkirkara, Re\u0121jun tal-Lvant, BZN 1708, Malta",
    "query_used": "Mriehel Bypass, Birkirkara, Malta"
  },
  "corinthia palace hotel|Balzan": {
    "lat": 35.8940433,
    "lon": 14.4491591,
    "display_name": "Corinthia Palace Hotel, Triq il-Linja, \u0126'Attard, Re\u0121jun tat-Tramuntana, BZN 9023, Malta",
    "query_used": "Corinthia Palace Hotel, Malta"
  },
  "st. george\u2019s bay|St Julian's": {
    "lat": 35.9287656,
    "lon": 14.490953,
    "display_name": "Corinthia (Saint George's Bay), Ix-Xatt ta' San \u0120or\u0121, San \u0120iljan, Re\u0121jun tal-Lvant, STJ 3301, Malta",
    "query_used": "St. George\u2019s Bay, St Julian's, Malta"
  },
  "st, paul's bay|Qawra": {
    "lat": 35.9482179,
    "lon": 14.4169028,
    "display_name": "Il-Knisja ta' San Fran\u0121isk t'Assisi, Triq Annetto Caruana, Bu\u0121ibba, San Pawl il-Ba\u0127ar, Re\u0121jun tat-Tramuntana, SPB 1147, Malta",
    "query_used": "ST, PAUL'S BAY, Qawra, Malta"
  },
  "qawra|Bugibba": {
    "lat": 35.9457541,
    "lon": 14.4176601,
    "display_name": "Triq il-Qawra, Bu\u0121ibba, San Pawl il-Ba\u0127ar, Re\u0121jun tat-Tramuntana, SPB 1147, Malta",
    "query_used": "Qawra, Bugibba, Malta"
  },
  "ta monita|Marsascala": {
    "lat": 35.8678317,
    "lon": 14.5655914,
    "display_name": "Triq ta' Monita, Wied il-G\u0127ajn, Re\u0121jun tan-Nofsinhar, MSK 1015, Malta",
    "query_used": "Ta Monita, Marsascala, Malta"
  },
  "isla|Senglea": {
    "lat": 35.8847631,
    "lon": 14.5192657,
    "display_name": "Il-Bieb tal-Isla, L-Isla, Re\u0121jun tal-Port, BML 2064, Malta",
    "query_used": "Isla, Senglea, Malta"
  },
  "san pawl tat targa|Birguma": {
    "lat": 35.9207237,
    "lon": 14.4408857,
    "display_name": "San Pawl tat-Tar\u0121a, In-Naxxar, Re\u0121jun tat-Tramuntana, NXR 1560, Malta",
    "query_used": "San Pawl tat Targa, Malta"
  },
  "san anton gardens|Attard": {
    "lat": 35.896107,
    "lon": 14.4481778,
    "display_name": "Il-\u0120onna ta' Sant' Anton, \u0126'Attard, Re\u0121jun tat-Tramuntana, Malta",
    "query_used": "San Anton Gardens, Attard, Malta"
  },
  "ta\u2019 cenc|Gozo - Sannat": {
    "lat": 36.021043,
    "lon": 14.2512788,
    "display_name": "Ta' \u010aen\u010b, Ta' Sannat, Re\u0121jun G\u0127awdex, Malta",
    "query_used": "Ta\u2019 Cenc, Gozo - Sannat, Malta"
  },
  "st. thomas bay|Marsascala": {
    "lat": 35.8529121,
    "lon": 14.5687119,
    "display_name": "Il-Bajja ta' San Tumas, MSK 3043, Malta",
    "query_used": "St. Thomas Bay, Malta"
  },
  "kempinski hotel|Gozo - Gharb": {
    "lat": 36.0528846,
    "lon": 14.2079255,
    "display_name": "Kempinski San Lawrenz, Triq ir-Rokon, San Lawrenz, Re\u0121jun G\u0127awdex, SLZ 1040, Malta",
    "query_used": "Kempinski Hotel, Gozo - Gharb, Malta"
  },
  "tign\u00e9|Sliema": {
    "lat": 35.9066177,
    "lon": 14.5133136,
    "display_name": "Fort Tign\u00e9, Pjazza Tign\u00e9, Tas-Sliema, Re\u0121jun tal-Lvant, TPO 0001, Malta",
    "query_used": "Tign\u00e9, Sliema, Malta"
  },
  "valletta port|Kalkara": {
    "lat": 35.898226,
    "lon": 14.513529,
    "display_name": "Il-Biblioteka Nazzjonali, Triq it-Te\u017corerija, Il-Kamrata, Il-Belt Valletta, Re\u0121jun tal-Port, VLT 1173, Malta",
    "query_used": "Valletta port, Malta"
  },
  "shoreline|Kalkara": {
    "lat": 35.8921093,
    "lon": 14.5415285,
    "display_name": "The Shoreline Mall, Triq Santu Rokku, Smart City Malta, Il-Kalkara, Re\u0121jun tal-Port, SCM 1001, Malta",
    "query_used": "Shoreline, Kalkara, Malta"
  },
  "pendergardens|St Julian's": {
    "lat": 35.9215514,
    "lon": 14.4885415,
    "display_name": "Pendergardens, San \u0120iljan, Re\u0121jun tal-Lvant, STJ 9023, Malta",
    "query_used": "Pendergardens, St Julian's, Malta"
  },
  "portomaso marina|Paceville": {
    "lat": 35.921332,
    "lon": 14.493064,
    "display_name": "Portomaso Marina, Vjal Portomaso, San \u0120iljan, Re\u0121jun tal-Lvant, STJ 4011, Malta",
    "query_used": "Portomaso Marina, Malta"
  },
  "the village|San Gwann": {
    "lat": 35.9152071,
    "lon": 14.4822851,
    "display_name": "San Gawann The Village S/S, Triq il-Ba\u0127ar l-Iswed, San \u0120wann, Re\u0121jun tat-Tramuntana, SGN 1732, Malta",
    "query_used": "The Village, San Gwann, Malta"
  },
  "the tower|St Julian's": {
    "lat": 35.9144893,
    "lon": 14.4969662,
    "display_name": "The Doughnut Factory, Triq it-Torri, Tas-Sliema, Re\u0121jun tal-Lvant, SLM 1600, Malta",
    "query_used": "the Tower, St Julian's, Malta"
  },
  "mgarr ferry terminal|Gozo - Ghajnsielem": {
    "lat": 36.0243761,
    "lon": 14.2981644,
    "display_name": "M\u0121arr, Triq ix-Xatt, L-Im\u0121arr, G\u0127ajnsielem, Re\u0121jun G\u0127awdex, GSM 1011, Malta",
    "query_used": "Mgarr ferry terminal, Gozo - Ghajnsielem, Malta"
  },
  "tigne point shopping mall|Sliema": {
    "lat": 35.9076335,
    "lon": 14.5106248,
    "display_name": "The Point, Ix-Xatt ta' Qui-si-Sana, Tas-Sliema, Re\u0121jun tal-Lvant, TPO 0001, Malta",
    "query_used": "Tigne Point shopping mall, Sliema, Malta"
  },
  "gillieru bay|St Paul's Bay": {
    "lat": 35.9494586,
    "lon": 14.4066451,
    "display_name": "Gillieru Harbour Hotel, Triq il-Knisja, Bu\u0121ibba, San Pawl il-Ba\u0127ar, Re\u0121jun tat-Tramuntana, SPB 3256, Malta",
    "query_used": "Gillieru Bay, St Paul's Bay, Malta"
  },
  "tower road|Gzira": {
    "lat": 35.9148787,
    "lon": 14.497752,
    "display_name": "Triq it-Torri, Tas-Sliema, Re\u0121jun tal-Lvant, SLM 1600, Malta",
    "query_used": "Tower Road, Malta"
  },
  "manuel island|Gzira": {
    "lat": 35.9028825,
    "lon": 14.5049228,
    "display_name": "Fort Manoel, Triq il-Forti Manoel, Il-G\u017cira, Re\u0121jun tal-Lvant, SLM 3011, Malta",
    "query_used": "Manuel island, Gzira, Malta"
  },
  "xemxija|St Paul's Bay": {
    "lat": 35.9490125,
    "lon": 14.3838712,
    "display_name": "Ix-Xemxija, San Pawl il-Ba\u0127ar, Re\u0121jun tat-Tramuntana, SPB 9028, Malta",
    "query_used": "Xemxija, St Paul's Bay, Malta"
  },
  "fleur- de -lys|Birkirkara": {
    "lat": 35.892982,
    "lon": 14.4716185,
    "display_name": "Fleur-de-Lys, Birkirkara, Re\u0121jun tal-Lvant, Malta",
    "query_used": "Fleur- de -Lys, Birkirkara, Malta"
  },
  "paceville|Paceville": {
    "lat": 35.9227964,
    "lon": 14.4909757,
    "display_name": "Triq Paceville, San \u0120iljan, Re\u0121jun tal-Lvant, STJ 3070, Malta",
    "query_used": "Paceville, Malta"
  },
  "ghadira bay|Mellieha": {
    "lat": 35.9668741,
    "lon": 14.352492,
    "display_name": "Il-Bajja tal-G\u0127adira, Il-Mellie\u0127a, Re\u0121jun tat-Tramuntana, Malta",
    "query_used": "Ghadira bay, Mellieha, Malta"
  },
  "garden pjazza|St Paul's Bay": {
    "lat": 35.9081225,
    "lon": 14.5113427,
    "display_name": "Garden Battery, Pjazza Tign\u00e9, Tas-Sliema, Re\u0121jun tal-Lvant, TPO 0001, Malta",
    "query_used": "Garden Pjazza, Malta"
  },
  "bellavista|Marsascala": {
    "lat": 35.8627198,
    "lon": 14.5562518,
    "display_name": "Marsaskala - Bellavista, Triq Sant' Antnin, Wied il-G\u0127ajn, Re\u0121jun tan-Nofsinhar, MSK 4070, Malta",
    "query_used": "Bellavista, Marsascala, Malta"
  },
  "nigret|Rabat": {
    "lat": 36.0356991,
    "lon": 14.2407088,
    "display_name": "Tan-Nigret, Rabat, Ir-Rabat, Re\u0121jun G\u0127awdex, VCT 2520, Malta",
    "query_used": "Nigret, Rabat, Malta"
  },
  "mriehel|Balzan": {
    "lat": 35.893662,
    "lon": 14.45815,
    "display_name": "Skola Sekondarja Mrie\u0127el, Triq Pietru Pawl Castagna, Birkirkara, Re\u0121jun tat-Tramuntana, BZN 1708, Malta",
    "query_used": "Mriehel, Balzan, Malta"
  },
  "hamrun|Marsa": {
    "lat": 35.8816071,
    "lon": 14.4851606,
    "display_name": "Marsa-\u0126amrun Bypass, Il-\u0126amrun, Re\u0121jun tan-Nofsinhar, QRM 9061, Malta",
    "query_used": "HAMRUN, Marsa, Malta"
  },
  "santa lucija|Gozo - Kercem": {
    "lat": 36.0432761,
    "lon": 14.217684,
    "display_name": "Santa Lu\u010bija, Ta' Ker\u010bem, Re\u0121jun G\u0127awdex, XLN 1040, Malta",
    "query_used": "Santa Lucija, Gozo - Kercem, Malta"
  },
  "the quad|Mriehel": {
    "lat": 35.8912346,
    "lon": 14.4591399,
    "display_name": "The Quad Central, L-Imrie\u0127el, Birkirkara, Re\u0121jun tal-Lvant, CBD 1040, Malta",
    "query_used": "the Quad, Malta"
  },
  "hilltop gardens|Naxxar": {
    "lat": 35.911987,
    "lon": 14.4484105,
    "display_name": "Hilltop Gardens, Triq l-Inkwina, Is-Sg\u0127ajtar, In-Naxxar, Re\u0121jun tat-Tramuntana, NXR 1950, Malta",
    "query_used": "Hilltop Gardens, Naxxar, Malta"
  },
  "ta' monita|Marsascala": {
    "lat": 35.8678317,
    "lon": 14.5655914,
    "display_name": "Triq ta' Monita, Wied il-G\u0127ajn, Re\u0121jun tan-Nofsinhar, MSK 1015, Malta",
    "query_used": "Ta' Monita, Marsascala, Malta"
  },
  "bella vista|Marsascala": {
    "lat": 35.9066644,
    "lon": 14.4783761,
    "display_name": "Triq Bella Vista, San \u0120wann, Re\u0121jun tat-Tramuntana, SGN 9031, Malta",
    "query_used": "Bella Vista, Malta"
  },
  "ghar id-dud|Sliema": {
    "lat": 35.9124418,
    "lon": 14.5056438,
    "display_name": "Triq G\u0127ar id-Dud, Tas-Sliema, Re\u0121jun tal-Lvant, SLM 1605, Malta",
    "query_used": "Ghar id-Dud, Sliema, Malta"
  },
  "tigne' point|Sliema": {
    "lat": 35.9076335,
    "lon": 14.5106248,
    "display_name": "The Point, Ix-Xatt ta' Qui-si-Sana, Tas-Sliema, Re\u0121jun tal-Lvant, TPO 0001, Malta",
    "query_used": "Tigne' Point, Sliema, Malta"
  },
  "tigne'|Sliema": {
    "lat": 35.9066177,
    "lon": 14.5133136,
    "display_name": "Fort Tign\u00e9, Pjazza Tign\u00e9, Tas-Sliema, Re\u0121jun tal-Lvant, TPO 0001, Malta",
    "query_used": "Tigne', Sliema, Malta"
  },
  "landrijiet|Bahrija": {
    "lat": 35.8882615,
    "lon": 14.3590182,
    "display_name": "Ta' Landrijiet, Landrijiet, Il-Ba\u0127rija, Ir-Rabat, Re\u0121jun tal-Punent, RBT 6019, Malta",
    "query_used": "Landrijiet, Bahrija, Malta"
  },
  "g\u0127adira|Mellieha": {
    "lat": 35.9708754,
    "lon": 14.3488805,
    "display_name": "Ir-Riserva Naturali tal-G\u0127adira, Il-Mellie\u0127a, Re\u0121jun tat-Tramuntana, Malta",
    "query_used": "G\u0127adira, Mellieha, Malta"
  },
  "dingli|Rabat": {
    "lat": 35.8548318,
    "lon": 14.3774287,
    "display_name": "L-Irdum ta\u2019 \u0126ad-Dingli, \u0126ad-Dingli, Re\u0121jun tal-Punent, Malta",
    "query_used": "Dingli, Rabat, Malta"
  },
  "malta's university|Gzira": {
    "lat": 35.8985191,
    "lon": 14.5155899,
    "display_name": "University of Malta (Valletta Campus), Triq San Pawl, Il-Kamrata, Il-Belt Valletta, Re\u0121jun tal-Port, VLT 1174, Malta",
    "query_used": "Malta's University, Malta"
  },
  "wied rini, bahrija|Rabat": {
    "lat": 35.8871244,
    "lon": 14.3549854,
    "display_name": "Wied Rini, Landrijiet, Il-Ba\u0127rija, Ir-Rabat, Re\u0121jun tal-Punent, RBT 6019, Malta",
    "query_used": "Wied Rini, Bahrija, Rabat, Malta"
  },
  "virtu|Rabat": {
    "lat": 35.8745922,
    "lon": 14.3995945,
    "display_name": "Virt\u00f9, 26, Triq Carlo Fiamingo, Tal-Virt\u00f9, Ir-Rabat, Re\u0121jun tal-Punent, RBT 2633, Malta",
    "query_used": "Virtu, Rabat, Malta"
  },
  "palazzo parisio gardens|Naxxar": {
    "lat": 35.9149321,
    "lon": 14.4442102,
    "display_name": "Palazzo Parisio & Gardens, 29, Pjazza Vittorja, San Pawl tat-Tar\u0121a, In-Naxxar, Re\u0121jun tat-Tramuntana, NXR 1700, Malta",
    "query_used": "Palazzo Parisio Gardens, Naxxar, Malta"
  },
  "tal-papa|Birzebbuga": {
    "lat": 35.8201486,
    "lon": 14.524584,
    "display_name": "Tal-Papa, Bir\u017cebbu\u0121a, Re\u0121jun tan-Nofsinhar, Malta",
    "query_used": "Tal-papa, Birzebbuga, Malta"
  },
  "st.paul's bay|Bugibba": {
    "lat": 35.9412218,
    "lon": 14.4198165,
    "display_name": "Bird Park Malta, Triq tal-Imdawra, Burmarrad, Bu\u0121ibba, San Pawl il-Ba\u0127ar, Re\u0121jun tat-Tramuntana, NXR 6057, Malta",
    "query_used": "St.Paul's Bay, Bugibba, Malta"
  },
  "mosta rotunda|Mosta": {
    "lat": 35.910083,
    "lon": 14.4258096,
    "display_name": "Ba\u017cilika ta' Santa Marija, Pjazza Rotunda, Ta' Redusa, Ta' Mlit, Il-Mosta, Re\u0121jun tat-Tramuntana, MST 9058, Malta",
    "query_used": "Mosta Rotunda, Mosta, Malta"
  },
  "mellie\u0127a bay|Mellieha": {
    "lat": 35.9709599,
    "lon": 14.3497905,
    "display_name": "Il-Bajja tal-G\u0127adira, Il-Mellie\u0127a, Re\u0121jun tat-Tramuntana, Malta",
    "query_used": "Mellie\u0127a Bay, Mellieha, Malta"
  },
  "independence square|Gozo - Victoria": {
    "lat": 35.9008942,
    "lon": 14.5123411,
    "display_name": "Misra\u0127 Indipendenza, Il-Belt Valletta, Re\u0121jun tal-Port, Malta",
    "query_used": "Independence Square, Malta"
  },
  "ibragg|": {
    "lat": 35.9217557,
    "lon": 14.4748789,
    "display_name": "Is-Swieqi - Ibra\u0121\u0121, Triq tal-Ibra\u0121, Is-Swieqi, Re\u0121jun tal-Lvant, SWQ 2333, Malta",
    "query_used": "Ibragg, Malta"
  },
  "qawra|": {
    "lat": 35.9541286,
    "lon": 14.4198078,
    "display_name": "Il-Qawra, San Pawl il-Ba\u0127ar, Re\u0121jun tat-Tramuntana, SPB 2404, Malta",
    "query_used": "Qawra, Malta"
  },
  "marsalforn (gozo)|": {
    "lat": 36.0708915,
    "lon": 14.2598063,
    "display_name": "Marsalforn, I\u017c-\u017bebbu\u0121, Re\u0121jun G\u0127awdex, MFN 1211, Malta",
    "query_used": "Marsalforn (Gozo), Malta"
  },
  "bugibba|": {
    "lat": 35.9483211,
    "lon": 14.4105059,
    "display_name": "Bu\u0121ibba, San Pawl il-Ba\u0127ar, Re\u0121jun tat-Tramuntana, SPB 3015, Malta",
    "query_used": "Bugibba, Malta"
  },
  "xlendi (gozo)|": {
    "lat": 36.0311977,
    "lon": 14.2182656,
    "display_name": "Ix-Xlendi, Il-Munxar, Re\u0121jun G\u0127awdex, XLN 1101, Malta",
    "query_used": "Xlendi (Gozo), Malta"
  },
  "bormla|": {
    "lat": 35.8825817,
    "lon": 14.522721,
    "display_name": "Bormla, Re\u0121jun tal-Port, BML 2064, Malta",
    "query_used": "Bormla, Malta"
  },
  "birgu|": {
    "lat": 35.8881119,
    "lon": 14.5238445,
    "display_name": "Il-Birgu, Re\u0121jun tal-Port, Malta",
    "query_used": "Birgu, Malta"
  },
  "isla|": {
    "lat": 35.887175,
    "lon": 14.517307,
    "display_name": "L-Isla, Re\u0121jun tal-Port, Malta",
    "query_used": "Isla, Malta"
  },
  "xemxija|": {
    "lat": 35.9490125,
    "lon": 14.3838712,
    "display_name": "Ix-Xemxija, San Pawl il-Ba\u0127ar, Re\u0121jun tat-Tramuntana, SPB 9028, Malta",
    "query_used": "Xemxija, Malta"
  },
  "santa lucija|": {
    "lat": 35.8627784,
    "lon": 14.5047695,
    "display_name": "Santa Lu\u010bija, Re\u0121jun tan-Nofsinhar, Malta",
    "query_used": "Santa Lucija, Malta"
  },
  "\u0431\u0435\u043b\u0438 \u0434\u0443\u043d\u0430\u0432|\u0412\u0440\u044a\u0431\u043d\u0438\u0446\u0430 1": {
    "lat": 42.7361469,
    "lon": 23.2920282,
    "display_name": "\u0411\u0435\u043b\u0438 \u0414\u0443\u043d\u0430\u0432, \u0431\u0443\u043b. \u041b\u043e\u043c\u0441\u043a\u043e \u0448\u043e\u0441\u0435, \u0436.\u043a. \u0412\u0440\u044a\u0431\u043d\u0438\u0446\u0430 1, \u0421\u043e\u0444\u0438\u044f, \u0412\u0440\u044a\u0431\u043d\u0438\u0446\u0430, \u0421\u0442\u043e\u043b\u0438\u0447\u043d\u0430, \u0421\u043e\u0444\u0438\u044f-\u0433\u0440\u0430\u0434, 1231, \u0411\u044a\u043b\u0433\u0430\u0440\u0438\u044f",
    "query_used": "\u0411\u0435\u043b\u0438 \u0414\u0443\u043d\u0430\u0432, \u0412\u0440\u044a\u0431\u043d\u0438\u0446\u0430 1, Bulgaria"
  },
  "\u043c\u043e\u043b \u0431\u044a\u043b\u0433\u0430\u0440\u0438\u044f|\u0411\u043e\u0440\u043e\u0432\u043e": {
    "lat": 42.6640603,
    "lon": 23.2887209,
    "display_name": "\u041c\u043e\u043b \u0411\u044a\u043b\u0433\u0430\u0440\u0438\u044f, 69, \u0431\u0443\u043b. \u0411\u044a\u043b\u0433\u0430\u0440\u0438\u044f, \u043a\u0432. \u041c\u0430\u043d\u0430\u0441\u0442\u0438\u0440\u0441\u043a\u0438 \u043b\u0438\u0432\u0430\u0434\u0438, \u0421\u043e\u0444\u0438\u044f, \u0422\u0440\u0438\u0430\u0434\u0438\u0446\u0430, \u0421\u0442\u043e\u043b\u0438\u0447\u043d\u0430, \u0421\u043e\u0444\u0438\u044f-\u0433\u0440\u0430\u0434, 1404, \u0411\u044a\u043b\u0433\u0430\u0440\u0438\u044f",
    "query_used": "\u041c\u041e\u041b \u0411\u044a\u043b\u0433\u0430\u0440\u0438\u044f, Bulgaria"
  },
  "\u0431\u0443\u043b. \u0441\u0438\u043c\u0435\u043e\u043d\u043e\u0432\u0441\u043a\u043e \u0448\u043e\u0441\u0435|\u0412\u0438\u0442\u043e\u0448\u0430": {
    "lat": 42.6299521,
    "lon": 23.333424,
    "display_name": "\u0431\u0443\u043b. \u0421\u0438\u043c\u0435\u043e\u043d\u043e\u0432\u0441\u043a\u043e \u0448\u043e\u0441\u0435, \u043a\u0432. \u0421\u0438\u043c\u0435\u043e\u043d\u043e\u0432\u043e, \u0421\u043e\u0444\u0438\u044f, \u0412\u0438\u0442\u043e\u0448\u0430, \u0421\u0442\u043e\u043b\u0438\u0447\u043d\u0430, \u0421\u043e\u0444\u0438\u044f-\u0433\u0440\u0430\u0434, 1434, \u0411\u044a\u043b\u0433\u0430\u0440\u0438\u044f",
    "query_used": "\u0431\u0443\u043b. \u0421\u0438\u043c\u0435\u043e\u043d\u043e\u0432\u0441\u043a\u043e \u0448\u043e\u0441\u0435, \u0412\u0438\u0442\u043e\u0448\u0430, Bulgaria"
  },
  "\u0433\u043e\u0440\u043d\u0430 \u0431\u0430\u043d\u044f|\u0413\u043e\u0440\u043d\u0430 \u0431\u0430\u043d\u044f": {
    "lat": 42.6831167,
    "lon": 23.2417296,
    "display_name": "\u0413\u043e\u0440\u043d\u0430 \u0431\u0430\u043d\u044f, \u0411\u043e\u0439\u0447\u043e \u0411\u043e\u0439\u0447\u0435\u0432, \u0436.\u043a. \u041e\u0432\u0447\u0430 \u043a\u0443\u043f\u0435\u043b, \u0421\u043e\u0444\u0438\u044f, \u041e\u0432\u0447\u0430 \u043a\u0443\u043f\u0435\u043b, \u0421\u0442\u043e\u043b\u0438\u0447\u043d\u0430, \u0421\u043e\u0444\u0438\u044f-\u0433\u0440\u0430\u0434, 1632, \u0411\u044a\u043b\u0433\u0430\u0440\u0438\u044f",
    "query_used": "\u0413\u043e\u0440\u043d\u0430 \u0431\u0430\u043d\u044f, \u0413\u043e\u0440\u043d\u0430 \u0431\u0430\u043d\u044f, Bulgaria"
  },
  "\u0434\u0440\u0430\u0433\u0430\u043b\u0435\u0432\u0446\u0438|\u0414\u0440\u0430\u0433\u0430\u043b\u0435\u0432\u0446\u0438": {
    "lat": 42.6307354,
    "lon": 23.3136947,
    "display_name": "\u0414\u0440\u0430\u0433\u0430\u043b\u0435\u0432\u0446\u0438, \u041f\u0430\u043f\u0440\u0430\u0442, \u043a\u0432. \u0414\u0440\u0430\u0433\u0430\u043b\u0435\u0432\u0446\u0438, \u0421\u043e\u0444\u0438\u044f, \u0412\u0438\u0442\u043e\u0448\u0430, \u0421\u0442\u043e\u043b\u0438\u0447\u043d\u0430, \u0421\u043e\u0444\u0438\u044f-\u0433\u0440\u0430\u0434, 1415, \u0411\u044a\u043b\u0433\u0430\u0440\u0438\u044f",
    "query_used": "\u0414\u0440\u0430\u0433\u0430\u043b\u0435\u0432\u0446\u0438, \u0414\u0440\u0430\u0433\u0430\u043b\u0435\u0432\u0446\u0438, Bulgaria"
  },
  "\u0433\u0435\u043e \u043c\u0438\u043b\u0435\u0432|\u0413\u0435\u043e \u041c\u0438\u043b\u0435\u0432": {
    "lat": 42.6831331,
    "lon": 23.3628559,
    "display_name": "\u0413\u0435\u043e \u041c\u0438\u043b\u0435\u0432, \u0436.\u043a. \u0413\u0435\u043e \u041c\u0438\u043b\u0435\u0432, \u0421\u043e\u0444\u0438\u044f, \u0421\u043b\u0430\u0442\u0438\u043d\u0430, \u0421\u0442\u043e\u043b\u0438\u0447\u043d\u0430, \u0421\u043e\u0444\u0438\u044f-\u0433\u0440\u0430\u0434, 1111, \u0411\u044a\u043b\u0433\u0430\u0440\u0438\u044f",
    "query_used": "\u0413\u0435\u043e \u041c\u0438\u043b\u0435\u0432, \u0413\u0435\u043e \u041c\u0438\u043b\u0435\u0432, Bulgaria"
  },
  "\u043c\u0430\u043b\u0438\u043d\u043e\u0432\u0430 \u0434\u043e\u043b\u0438\u043d\u0430|\u041c\u0430\u043b\u0438\u043d\u043e\u0432\u0430 \u0434\u043e\u043b\u0438\u043d\u0430": {
    "lat": 42.635543,
    "lon": 23.3353264,
    "display_name": "\u0411\u0443\u043b\u0441\u0442\u0440\u043e\u0439 \u041c\u0430\u043b\u0438\u043d\u043e\u0432\u0430 \u0434\u043e\u043b\u0438\u043d\u0430, 4, \u0436.\u043a. \u041c\u0430\u043b\u0438\u043d\u043e\u0432\u0430 \u0434\u043e\u043b\u0438\u043d\u0430, \u0421\u043e\u0444\u0438\u044f, \u0421\u0442\u0443\u0434\u0435\u043d\u0442\u0441\u043a\u0438, \u0421\u0442\u043e\u043b\u0438\u0447\u043d\u0430, \u0421\u043e\u0444\u0438\u044f-\u0433\u0440\u0430\u0434, 1700, \u0411\u044a\u043b\u0433\u0430\u0440\u0438\u044f",
    "query_used": "\u041c\u0430\u043b\u0438\u043d\u043e\u0432\u0430 \u0434\u043e\u043b\u0438\u043d\u0430, \u041c\u0430\u043b\u0438\u043d\u043e\u0432\u0430 \u0434\u043e\u043b\u0438\u043d\u0430, Bulgaria"
  },
  "\u0431\u0443\u043b. \u0431\u044a\u043b\u0433\u0430\u0440\u0438\u044f|\u0411\u043e\u0440\u043e\u0432\u043e": {
    "lat": 42.6714581,
    "lon": 23.294063,
    "display_name": "\u0431\u0443\u043b. \u0411\u044a\u043b\u0433\u0430\u0440\u0438\u044f, \u0436.\u043a. \u0413\u043e\u0446\u0435 \u0414\u0435\u043b\u0447\u0435\u0432, \u0421\u043e\u0444\u0438\u044f, \u0422\u0440\u0438\u0430\u0434\u0438\u0446\u0430, \u0421\u0442\u043e\u043b\u0438\u0447\u043d\u0430, \u0421\u043e\u0444\u0438\u044f-\u0433\u0440\u0430\u0434, 1680, \u0411\u044a\u043b\u0433\u0430\u0440\u0438\u044f",
    "query_used": "\u0431\u0443\u043b. \u0411\u044a\u043b\u0433\u0430\u0440\u0438\u044f, \u0411\u043e\u0440\u043e\u0432\u043e, Bulgaria"
  },
  "\u0431\u0443\u043b.'\u0446\u0430\u0440 \u0431\u043e\u0440\u0438\u0441 iii'|\u041b\u0430\u0433\u0435\u0440\u0430": {
    "lat": 42.6861821,
    "lon": 23.2982289,
    "display_name": "\u0431\u0443\u043b. \u0426\u0430\u0440 \u0411\u043e\u0440\u0438\u0441 III, \u0436.\u043a. \u041b\u0430\u0433\u0435\u0440\u0430, \u0421\u043e\u0444\u0438\u044f, \u041a\u0440\u0430\u0441\u043d\u043e \u0441\u0435\u043b\u043e, \u0421\u0442\u043e\u043b\u0438\u0447\u043d\u0430, \u0421\u043e\u0444\u0438\u044f-\u0433\u0440\u0430\u0434, 1621, \u0411\u044a\u043b\u0433\u0430\u0440\u0438\u044f",
    "query_used": "\u0431\u0443\u043b.'\u0426\u0430\u0440 \u0411\u043e\u0440\u0438\u0441 III', \u041b\u0430\u0433\u0435\u0440\u0430, Bulgaria"
  },
  "\u0434\u0440\u0443\u0436\u0431\u0430 1|\u0414\u0440\u0443\u0436\u0431\u0430 1": {
    "lat": 43.403435,
    "lon": 24.6308413,
    "display_name": "\u0414\u0440\u0443\u0436\u0431\u0430 1, 3-\u0442\u0438 \u041c\u0430\u0440\u0442, \u0436.\u043a. \u0414\u0440\u0443\u0436\u0431\u0430 1, \u0426\u0435\u043d\u0442\u0440\u0430\u043b\u043d\u0430 \u0433\u0440\u0430\u0434\u0441\u043a\u0430 \u0447\u0430\u0441\u0442, \u041f\u043b\u0435\u0432\u0435\u043d, 5703, \u0411\u044a\u043b\u0433\u0430\u0440\u0438\u044f",
    "query_used": "\u0414\u0440\u0443\u0436\u0431\u0430 1, \u0414\u0440\u0443\u0436\u0431\u0430 1, Bulgaria"
  },
  "\u0432\u0440\u044a\u0431\u043d\u0438\u0446\u0430 2|\u0412\u0440\u044a\u0431\u043d\u0438\u0446\u0430 2": {
    "lat": 42.7393279,
    "lon": 23.2945804,
    "display_name": "\u0431\u043b. 603 \u0436.\u043a. \u0412\u0440\u044a\u0431\u043d\u0438\u0446\u0430 2, \u0417\u043b\u0430\u0442\u0435\u043d \u043a\u043b\u0430\u0441, \u0436.\u043a. \u0412\u0440\u044a\u0431\u043d\u0438\u0446\u0430 2, \u0421\u043e\u0444\u0438\u044f, \u0412\u0440\u044a\u0431\u043d\u0438\u0446\u0430, \u0421\u0442\u043e\u043b\u0438\u0447\u043d\u0430, \u0421\u043e\u0444\u0438\u044f-\u0433\u0440\u0430\u0434, 1231, \u0411\u044a\u043b\u0433\u0430\u0440\u0438\u044f",
    "query_used": "\u0412\u0440\u044a\u0431\u043d\u0438\u0446\u0430 2, \u0412\u0440\u044a\u0431\u043d\u0438\u0446\u0430 2, Bulgaria"
  },
  "\u0431\u0430\u043d\u0438\u0448\u043e\u0440\u0430|\u0411\u0430\u043d\u0438\u0448\u043e\u0440\u0430": {
    "lat": 42.7092415,
    "lon": 23.3062937,
    "display_name": "\u0411\u0430\u043d\u0438\u0448\u043e\u0440\u0430, \u0431\u0443\u043b. \u0413\u0435\u043d. \u0421\u0442\u043e\u043b\u0435\u0442\u043e\u0432, \u0436.\u043a. \u0411\u0430\u043d\u0438\u0448\u043e\u0440\u0430, \u0421\u043e\u0444\u0438\u044f, \u0421\u0435\u0440\u0434\u0438\u043a\u0430, \u0421\u0442\u043e\u043b\u0438\u0447\u043d\u0430, \u0421\u043e\u0444\u0438\u044f-\u0433\u0440\u0430\u0434, 1233, \u0411\u044a\u043b\u0433\u0430\u0440\u0438\u044f",
    "query_used": "\u0411\u0430\u043d\u0438\u0448\u043e\u0440\u0430, \u0411\u0430\u043d\u0438\u0448\u043e\u0440\u0430, Bulgaria"
  },
  "\u0431\u0438\u0437\u043d\u0435\u0441 \u043f\u0430\u0440\u043a|\u041c\u043b\u0430\u0434\u043e\u0441\u0442 3": {
    "lat": 43.2295821,
    "lon": 27.8563915,
    "display_name": "\u0411\u0438\u0437\u043d\u0435\u0441 \u041f\u0430\u0440\u043a, \u0410\u0432\u0442\u043e\u043c\u0430\u0433\u0438\u0441\u0442\u0440\u0430\u043b\u0430 \u0425\u0435\u043c\u0443\u0441, \u043a\u0432. \u041a\u0430\u0439\u0441\u0438\u0435\u0432\u0430 \u0433\u0440\u0430\u0434\u0438\u043d\u0430, \u0412\u0430\u0440\u043d\u0430, \u0412\u043b\u0430\u0434\u0438\u0441\u043b\u0430\u0432 \u0412\u0430\u0440\u043d\u0435\u043d\u0447\u0438\u043a, \u0412\u0430\u0440\u043d\u0430, 9023, \u0411\u044a\u043b\u0433\u0430\u0440\u0438\u044f",
    "query_used": "\u0411\u0438\u0437\u043d\u0435\u0441 \u043f\u0430\u0440\u043a, Bulgaria"
  },
  "\u0431\u043e\u044f\u043d\u0430|\u0411\u043e\u044f\u043d\u0430": {
    "lat": 42.6421644,
    "lon": 23.2664852,
    "display_name": "\u0411\u043e\u044f\u043d\u0430, \u041a\u0430\u043c\u0435\u043d\u043d\u043e \u0437\u0434\u0430\u043d\u0438\u0435, \u043a\u0432. \u0411\u043e\u044f\u043d\u0430, \u0421\u043e\u0444\u0438\u044f, \u0412\u0438\u0442\u043e\u0448\u0430, \u0421\u0442\u043e\u043b\u0438\u0447\u043d\u0430, \u0421\u043e\u0444\u0438\u044f-\u0433\u0440\u0430\u0434, 1616, \u0411\u044a\u043b\u0433\u0430\u0440\u0438\u044f",
    "query_used": "\u0411\u043e\u044f\u043d\u0430, \u0411\u043e\u044f\u043d\u0430, Bulgaria"
  },
  "\u043b\u0435\u0432\u0441\u043a\u0438 \u0437\u043e\u043d\u0430 \u0433|\u041b\u0435\u0432\u0441\u043a\u0438 \u0413": {
    "lat": 42.7108094,
    "lon": 23.3778722,
    "display_name": "\u041b\u0435\u0432\u0441\u043a\u0438 \u0437\u043e\u043d\u0430 \u0413 2, \u041c\u043e\u0433\u0438\u043b\u0438\u0442\u0435, \u0436.\u043a. \u041b\u0435\u0432\u0441\u043a\u0438 \u0437\u043e\u043d\u0430 \u0413, \u0421\u043e\u0444\u0438\u044f, \u041f\u043e\u0434\u0443\u044f\u043d\u0435, \u0421\u0442\u043e\u043b\u0438\u0447\u043d\u0430, \u0421\u043e\u0444\u0438\u044f-\u0433\u0440\u0430\u0434, 1836, \u0411\u044a\u043b\u0433\u0430\u0440\u0438\u044f",
    "query_used": "\u041b\u0435\u0432\u0441\u043a\u0438 \u0417\u043e\u043d\u0430 \u0413, \u041b\u0435\u0432\u0441\u043a\u0438 \u0413, Bulgaria"
  },
  "\u0433\u043e\u0440\u0443\u0431\u043b\u044f\u043d\u0435|\u0413\u043e\u0440\u0443\u0431\u043b\u044f\u043d\u0435": {
    "lat": 42.6418705,
    "lon": 23.402671,
    "display_name": "\u0422\u0440\u0438\u044a\u0433\u044a\u043b\u043d\u0438\u043a\u0430 \u043a\u0432. \u0413\u043e\u0440\u0443\u0431\u043b\u044f\u043d\u0435, \u0421\u0430\u043c\u043e\u043a\u043e\u0432\u0441\u043a\u043e \u0448\u043e\u0441\u0435, \u041d\u041f\u0417 \u0418\u0437\u0442\u043e\u043a, \u0421\u043e\u0444\u0438\u044f, \u041c\u043b\u0430\u0434\u043e\u0441\u0442, \u0421\u0442\u043e\u043b\u0438\u0447\u043d\u0430, \u0421\u043e\u0444\u0438\u044f-\u0433\u0440\u0430\u0434, 1582, \u0411\u044a\u043b\u0433\u0430\u0440\u0438\u044f",
    "query_used": "\u0413\u043e\u0440\u0443\u0431\u043b\u044f\u043d\u0435, \u0413\u043e\u0440\u0443\u0431\u043b\u044f\u043d\u0435, Bulgaria"
  },
  "\u043c\u0435\u0442\u0440\u043e\u0441\u0442\u0430\u043d\u0446\u0438\u044f '\u0432\u043b\u0430\u0434\u0438\u043c\u0438\u0440 \u0432\u0430\u0437\u043e\u0432'|\u041b\u0435\u0432\u0441\u043a\u0438 \u0413": {
    "lat": 42.7024701,
    "lon": 23.3522288,
    "display_name": "\u041c\u0435\u0442\u0440\u043e\u0441\u0442\u0430\u043d\u0446\u0438\u044f \u0425\u0430\u0434\u0436\u0438 \u0414\u0438\u043c\u0438\u0442\u044a\u0440, \u0431\u0443\u043b. \u0412\u043b\u0430\u0434\u0438\u043c\u0438\u0440 \u0412\u0430\u0437\u043e\u0432, \u0436.\u043a. \u0421\u0443\u0445\u0430\u0442\u0430 \u0440\u0435\u043a\u0430, \u0421\u043e\u0444\u0438\u044f, \u041f\u043e\u0434\u0443\u044f\u043d\u0435, \u0421\u0442\u043e\u043b\u0438\u0447\u043d\u0430, \u0421\u043e\u0444\u0438\u044f-\u0433\u0440\u0430\u0434, 1510, \u0411\u044a\u043b\u0433\u0430\u0440\u0438\u044f",
    "query_used": "\u043c\u0435\u0442\u0440\u043e\u0441\u0442\u0430\u043d\u0446\u0438\u044f '\u0412\u043b\u0430\u0434\u0438\u043c\u0438\u0440 \u0412\u0430\u0437\u043e\u0432', Bulgaria"
  },
  "\u0443\u043b. 5037|\u0414\u0440\u0443\u0436\u0431\u0430 1": {
    "lat": 43.8204424,
    "lon": 25.9710418,
    "display_name": "\u0443\u043b. \u0414\u0438\u043b\u044f\u043d\u043a\u0430, \u0436.\u043a. \u0414\u0440\u0443\u0436\u0431\u0430 3, \u0420\u0443\u0441\u0435, 7075, \u0411\u044a\u043b\u0433\u0430\u0440\u0438\u044f",
    "query_used": "\u0443\u043b. 5037, \u0414\u0440\u0443\u0436\u0431\u0430 1, Bulgaria"
  },
  "\u0443\u043b. \u043f\u0440\u043e\u043c\u0438\u0448\u043b\u0435\u043d\u0430|\u041e\u0432\u0447\u0430 \u043a\u0443\u043f\u0435\u043b 1": {
    "lat": 42.6898323,
    "lon": 23.2507615,
    "display_name": "\u0443\u043b. \u041f\u0440\u043e\u043c\u0438\u0448\u043b\u0435\u043d\u0430, \u0431\u0443\u043b. \u041f\u0440\u0435\u0437\u0438\u0434\u0435\u043d\u0442 \u041b\u0438\u043d\u043a\u044a\u043b\u043d, \u0436.\u043a. \u041e\u0432\u0447\u0430 \u043a\u0443\u043f\u0435\u043b, \u0421\u043e\u0444\u0438\u044f, \u041e\u0432\u0447\u0430 \u043a\u0443\u043f\u0435\u043b, \u0421\u0442\u043e\u043b\u0438\u0447\u043d\u0430, \u0421\u043e\u0444\u0438\u044f-\u0433\u0440\u0430\u0434, 1632, \u0411\u044a\u043b\u0433\u0430\u0440\u0438\u044f",
    "query_used": "\u0443\u043b. \u041f\u0440\u043e\u043c\u0438\u0448\u043b\u0435\u043d\u0430, Bulgaria"
  },
  "\u043b\u044e\u043b\u0438\u043d 3|\u041b\u044e\u043b\u0438\u043d 3": {
    "lat": 42.7211722,
    "lon": 23.2466247,
    "display_name": "\u0436.\u043a. \u041b\u044e\u043b\u0438\u043d 3, \u0436.\u043a. \u041b\u044e\u043b\u0438\u043d, \u0421\u043e\u0444\u0438\u044f, \u041b\u044e\u043b\u0438\u043d, \u0421\u0442\u043e\u043b\u0438\u0447\u043d\u0430, \u0421\u043e\u0444\u0438\u044f-\u0433\u0440\u0430\u0434, 1343, \u0411\u044a\u043b\u0433\u0430\u0440\u0438\u044f",
    "query_used": "\u041b\u044e\u043b\u0438\u043d 3, \u041b\u044e\u043b\u0438\u043d 3, Bulgaria"
  },
  "\u0431\u0443\u043b. \u0430\u043b\u0435\u043a\u0441\u0430\u043d\u0434\u044a\u0440 \u043c\u0430\u043b\u0438\u043d\u043e\u0432 6|\u041c\u043b\u0430\u0434\u043e\u0441\u0442 1": {
    "lat": 42.6547318,
    "lon": 23.3811226,
    "display_name": "\u0431\u0443\u043b. \u0410\u043b\u0435\u043a\u0441\u0430\u043d\u0434\u044a\u0440 \u041c\u0430\u043b\u0438\u043d\u043e\u0432, \u0436.\u043a. \u041c\u043b\u0430\u0434\u043e\u0441\u0442 1, \u0421\u043e\u0444\u0438\u044f, \u041c\u043b\u0430\u0434\u043e\u0441\u0442, \u0421\u0442\u043e\u043b\u0438\u0447\u043d\u0430, \u0421\u043e\u0444\u0438\u044f-\u0433\u0440\u0430\u0434, 1784, \u0411\u044a\u043b\u0433\u0430\u0440\u0438\u044f",
    "query_used": "\u0431\u0443\u043b. \u0410\u043b\u0435\u043a\u0441\u0430\u043d\u0434\u044a\u0440 \u041c\u0430\u043b\u0438\u043d\u043e\u0432 6, \u041c\u043b\u0430\u0434\u043e\u0441\u0442 1, Bulgaria"
  },
  "\u044e\u0436\u043d\u0438\u044f \u043f\u0430\u0440\u043a|\u0413\u043e\u0446\u0435 \u0414\u0435\u043b\u0447\u0435\u0432": {
    "lat": 42.6744813,
    "lon": 23.3089794,
    "display_name": "\u0414\u043e\u0431\u0440\u0435 \u0434\u043e\u0448\u043b\u0438 \u0432 \u042e\u0436\u043d\u0438\u044f \u043f\u0430\u0440\u043a, \u0430\u043b\u0435\u044f \u0420\u043e\u043d\u0430\u043b\u0434 \u0420\u0435\u0439\u0433\u044a\u043d, \u0421\u043e\u0444\u0438\u044f, \u0422\u0440\u0438\u0430\u0434\u0438\u0446\u0430, \u0421\u0442\u043e\u043b\u0438\u0447\u043d\u0430, \u0421\u043e\u0444\u0438\u044f-\u0433\u0440\u0430\u0434, 1408, \u0411\u044a\u043b\u0433\u0430\u0440\u0438\u044f",
    "query_used": "\u042e\u0436\u043d\u0438\u044f \u043f\u0430\u0440\u043a, Bulgaria"
  },
  "\u0433\u044a\u0440\u0434\u043e\u0432\u0430 \u0433\u043b\u0430\u0432\u0430|\u0411\u043e\u044f\u043d\u0430": {
    "lat": 42.6575108,
    "lon": 23.2600104,
    "display_name": "\u0413\u044a\u0440\u0434\u043e\u0432\u0430 \u0433\u043b\u0430\u0432\u0430, \u0421\u043e\u0444\u0438\u044f, \u0412\u0438\u0442\u043e\u0448\u0430, \u0421\u0442\u043e\u043b\u0438\u0447\u043d\u0430, \u0421\u043e\u0444\u0438\u044f-\u0433\u0440\u0430\u0434, 1619, \u0411\u044a\u043b\u0433\u0430\u0440\u0438\u044f",
    "query_used": "\u0413\u044a\u0440\u0434\u043e\u0432\u0430 \u0433\u043b\u0430\u0432\u0430, Bulgaria"
  },
  "\u043c\u043b\u0430\u0434\u043e\u0441\u0442 3|\u041c\u043b\u0430\u0434\u043e\u0441\u0442 3": {
    "lat": 42.6463211,
    "lon": 23.3845657,
    "display_name": "\u041c\u043b\u0430\u0434\u043e\u0441\u0442 3, \u0431\u0443\u043b. \u0410\u043d\u0434\u0440\u0435\u0439 \u041b\u044f\u043f\u0447\u0435\u0432, \u0436.\u043a. \u041c\u043b\u0430\u0434\u043e\u0441\u0442 3, \u0421\u043e\u0444\u0438\u044f, \u041c\u043b\u0430\u0434\u043e\u0441\u0442, \u0421\u0442\u043e\u043b\u0438\u0447\u043d\u0430, \u0421\u043e\u0444\u0438\u044f-\u0433\u0440\u0430\u0434, 1729, \u0411\u044a\u043b\u0433\u0430\u0440\u0438\u044f",
    "query_used": "\u041c\u043b\u0430\u0434\u043e\u0441\u0442 3, \u041c\u043b\u0430\u0434\u043e\u0441\u0442 3, Bulgaria"
  },
  "\u0443\u043b. \u043f\u0440\u043e\u0444. \u0436\u0438\u0432\u043a\u043e \u0441\u0442\u0430\u043b\u0435\u0432|\u041c\u0430\u043b\u0438\u043d\u043e\u0432\u0430 \u0434\u043e\u043b\u0438\u043d\u0430": {
    "lat": 42.6401027,
    "lon": 23.3436214,
    "display_name": "\u0443\u043b. \u0422\u043e\u0434\u043e\u0440 \u0419\u043e\u043d\u0447\u0435\u0432, \u041f\u0440\u043e\u0444. \u0416\u0438\u0432\u043a\u043e \u0421\u0442\u0430\u043b\u0435\u0432, \u0436.\u043a. \u041c\u0430\u043b\u0438\u043d\u043e\u0432\u0430 \u0434\u043e\u043b\u0438\u043d\u0430, \u0421\u043e\u0444\u0438\u044f, \u0421\u0442\u0443\u0434\u0435\u043d\u0442\u0441\u043a\u0438, \u0421\u0442\u043e\u043b\u0438\u0447\u043d\u0430, \u0421\u043e\u0444\u0438\u044f-\u0433\u0440\u0430\u0434, 1734, \u0411\u044a\u043b\u0433\u0430\u0440\u0438\u044f",
    "query_used": "\u0443\u043b. \u041f\u0440\u043e\u0444. \u0416\u0438\u0432\u043a\u043e \u0421\u0442\u0430\u043b\u0435\u0432, \u041c\u0430\u043b\u0438\u043d\u043e\u0432\u0430 \u0434\u043e\u043b\u0438\u043d\u0430, Bulgaria"
  },
  "\u043d\u0441\u0430|\u041c\u0430\u043b\u0438\u043d\u043e\u0432\u0430 \u0434\u043e\u043b\u0438\u043d\u0430": {
    "lat": 42.6465569,
    "lon": 23.3489733,
    "display_name": "\u041d\u0430\u0446\u0438\u043e\u043d\u0430\u043b\u043d\u0430 \u0441\u043f\u043e\u0440\u0442\u043d\u0430 \u0430\u043a\u0430\u0434\u0435\u043c\u0438\u044f \"\u0412\u0430\u0441\u0438\u043b \u041b\u0435\u0432\u0441\u043a\u0438\", \u041f\u0440\u043e\u0444. \u0410\u0442\u0430\u043d\u0430\u0441 \u0418\u0448\u0438\u0440\u043a\u043e\u0432, \u0436.\u043a. \u0421\u0442\u0443\u0434\u0435\u043d\u0442\u0441\u043a\u0438 \u0433\u0440\u0430\u0434, \u0421\u043e\u0444\u0438\u044f, \u0421\u0442\u0443\u0434\u0435\u043d\u0442\u0441\u043a\u0438, \u0421\u0442\u043e\u043b\u0438\u0447\u043d\u0430, \u0421\u043e\u0444\u0438\u044f-\u0433\u0440\u0430\u0434, 1700, \u0411\u044a\u043b\u0433\u0430\u0440\u0438\u044f",
    "query_used": "\u041d\u0421\u0410, Bulgaria"
  },
  "\u043f\u043e\u0437\u0438\u0442\u0430\u043d\u043e 145|\u0426\u0435\u043d\u0442\u044a\u0440": {
    "lat": 42.696597,
    "lon": 23.3159541,
    "display_name": "\u041f\u043e\u0437\u0438\u0442\u0430\u043d\u043e, \u0426\u0435\u043d\u0442\u044a\u0440, \u0421\u043e\u0444\u0438\u044f, \u0422\u0440\u0438\u0430\u0434\u0438\u0446\u0430, \u0421\u0442\u043e\u043b\u0438\u0447\u043d\u0430, \u0421\u043e\u0444\u0438\u044f-\u0433\u0440\u0430\u0434, 1000, \u0411\u044a\u043b\u0433\u0430\u0440\u0438\u044f",
    "query_used": "\u041f\u043e\u0437\u0438\u0442\u0430\u043d\u043e 145, \u0426\u0435\u043d\u0442\u044a\u0440, Bulgaria"
  },
  "\u0431\u043e\u0440\u0438\u0441\u043e\u0432\u0430 \u0433\u0440\u0430\u0434\u0438\u043d\u0430|\u041b\u043e\u0437\u0435\u043d\u0435\u0446": {
    "lat": 42.6740995,
    "lon": 23.3414998,
    "display_name": "\u0411\u043e\u0440\u0438\u0441\u043e\u0432\u0430 \u0433\u0440\u0430\u0434\u0438\u043d\u0430, \u0421\u043e\u0444\u0438\u044f, \u0418\u0437\u0433\u0440\u0435\u0432, \u0421\u0442\u043e\u043b\u0438\u0447\u043d\u0430, \u0421\u043e\u0444\u0438\u044f-\u0433\u0440\u0430\u0434, 1040, \u0411\u044a\u043b\u0433\u0430\u0440\u0438\u044f",
    "query_used": "\u0411\u043e\u0440\u0438\u0441\u043e\u0432\u0430 \u0413\u0440\u0430\u0434\u0438\u043d\u0430, \u041b\u043e\u0437\u0435\u043d\u0435\u0446, Bulgaria"
  },
  "\u043a\u043e\u0448\u0435\u0440|\u041c\u0430\u043d\u0430\u0441\u0442\u0438\u0440\u0441\u043a\u0438 \u043b\u0438\u0432\u0430\u0434\u0438": {
    "lat": 42.6767395,
    "lon": 23.2846806,
    "display_name": "\u041a\u043e\u0448\u0435\u0440, \u0431\u043b. 193, \u0436.\u043a. \u041a\u0440\u0430\u0441\u043d\u043e \u0441\u0435\u043b\u043e, \u0421\u043e\u0444\u0438\u044f, \u041a\u0440\u0430\u0441\u043d\u043e \u0441\u0435\u043b\u043e, \u0421\u0442\u043e\u043b\u0438\u0447\u043d\u0430, \u0421\u043e\u0444\u0438\u044f-\u0433\u0440\u0430\u0434, 1620, \u0411\u044a\u043b\u0433\u0430\u0440\u0438\u044f",
    "query_used": "\u041a\u043e\u0448\u0435\u0440, Bulgaria"
  },
  "\u043f\u0430\u0440\u043a \u0432\u044a\u0440\u0442\u043e\u043f\u043e|\u041c\u043b\u0430\u0434\u043e\u0441\u0442 1": {
    "lat": 42.6371411,
    "lon": 23.3604352,
    "display_name": "\u041f\u0430\u0440\u043a \u0412\u044a\u0440\u0442\u043e\u043f\u043e, \u0421\u043e\u0444\u0438\u044f, \u0421\u0442\u0443\u0434\u0435\u043d\u0442\u0441\u043a\u0438, \u0421\u0442\u043e\u043b\u0438\u0447\u043d\u0430, \u0421\u043e\u0444\u0438\u044f-\u0433\u0440\u0430\u0434, 1756, \u0411\u044a\u043b\u0433\u0430\u0440\u0438\u044f",
    "query_used": "\u043f\u0430\u0440\u043a \u0412\u044a\u0440\u0442\u043e\u043f\u043e, Bulgaria"
  },
  "\u043e\u0431\u0435\u043b\u044f 1|\u041e\u0431\u0435\u043b\u044f 1": {
    "lat": 42.7406882,
    "lon": 23.2761026,
    "display_name": "\u041e\u0431\u0435\u043b\u044f, \u0431\u0443\u043b. \u041f\u0430\u043d\u0447\u043e \u0412\u043b\u0430\u0434\u0438\u0433\u0435\u0440\u043e\u0432, \u0436.\u043a. \u041e\u0431\u0435\u043b\u044f 1, \u0421\u043e\u0444\u0438\u044f, \u0412\u0440\u044a\u0431\u043d\u0438\u0446\u0430, \u0421\u0442\u043e\u043b\u0438\u0447\u043d\u0430, \u0421\u043e\u0444\u0438\u044f-\u0433\u0440\u0430\u0434, 1326, \u0411\u044a\u043b\u0433\u0430\u0440\u0438\u044f",
    "query_used": "\u041e\u0431\u0435\u043b\u044f 1, \u041e\u0431\u0435\u043b\u044f 1, Bulgaria"
  },
  "\u0441\u0438\u043c\u0435\u043e\u043d\u043e\u0432\u0441\u043a\u043e \u0448\u043e\u0441\u0435|\u0412\u0438\u0442\u043e\u0448\u0430": {
    "lat": 42.6320558,
    "lon": 23.3336263,
    "display_name": "\u0431\u0443\u043b. \u0421\u0438\u043c\u0435\u043e\u043d\u043e\u0432\u0441\u043a\u043e \u0448\u043e\u0441\u0435, \u043a\u0432. \u0421\u0438\u043c\u0435\u043e\u043d\u043e\u0432\u043e, \u0421\u043e\u0444\u0438\u044f, \u0412\u0438\u0442\u043e\u0448\u0430, \u0421\u0442\u043e\u043b\u0438\u0447\u043d\u0430, \u0421\u043e\u0444\u0438\u044f-\u0433\u0440\u0430\u0434, 1434, \u0411\u044a\u043b\u0433\u0430\u0440\u0438\u044f",
    "query_used": "\u0421\u0438\u043c\u0435\u043e\u043d\u043e\u0432\u0441\u043a\u043e \u0448\u043e\u0441\u0435, \u0412\u0438\u0442\u043e\u0448\u0430, Bulgaria"
  },
  "\u043d\u043e\u0432 \u0431\u044a\u043b\u0433\u0430\u0440\u0441\u043a\u0438 \u0443\u043d\u0438\u0432\u0435\u0440\u0441\u0438\u0442\u0435\u0442|\u041e\u0432\u0447\u0430 \u043a\u0443\u043f\u0435\u043b": {
    "lat": 42.6775624,
    "lon": 23.2527335,
    "display_name": "\u041d\u043e\u0432 \u0411\u044a\u043b\u0433\u0430\u0440\u0441\u043a\u0438 \u0423\u043d\u0438\u0432\u0435\u0440\u0441\u0438\u0442\u0435\u0442 - \u0421\u043e\u0444\u0438\u044f, 21, \u041c\u043e\u043d\u0442\u0435\u0432\u0438\u0434\u0435\u043e, \u043a\u0432. \u041e\u0432\u0447\u0430 \u043a\u0443\u043f\u0435\u043b, \u0421\u043e\u0444\u0438\u044f, \u041e\u0432\u0447\u0430 \u043a\u0443\u043f\u0435\u043b, \u0421\u0442\u043e\u043b\u0438\u0447\u043d\u0430, \u0421\u043e\u0444\u0438\u044f-\u0433\u0440\u0430\u0434, 1618, \u0411\u044a\u043b\u0433\u0430\u0440\u0438\u044f",
    "query_used": "\u041d\u043e\u0432 \u0411\u044a\u043b\u0433\u0430\u0440\u0441\u043a\u0438 \u0423\u043d\u0438\u0432\u0435\u0440\u0441\u0438\u0442\u0435\u0442, \u041e\u0432\u0447\u0430 \u043a\u0443\u043f\u0435\u043b, Bulgaria"
  },
  "\u0443\u043b.\u043f\u0440\u0435\u0437\u0438\u0434\u0435\u043d\u0442 \u043b\u0438\u043d\u043a\u044a\u043b\u043d|\u041e\u0432\u0447\u0430 \u043a\u0443\u043f\u0435\u043b 1": {
    "lat": 42.6865604,
    "lon": 23.2660552,
    "display_name": "\u0443\u043b. \u041b\u0438\u043b\u044f\u0447\u0435, \u0431\u0443\u043b. \u041f\u0440\u0435\u0437\u0438\u0434\u0435\u043d\u0442 \u041b\u0438\u043d\u043a\u044a\u043b\u043d, \u043a\u0432. \u041e\u0432\u0447\u0430 \u043a\u0443\u043f\u0435\u043b, \u0421\u043e\u0444\u0438\u044f, \u041e\u0432\u0447\u0430 \u043a\u0443\u043f\u0435\u043b, \u0421\u0442\u043e\u043b\u0438\u0447\u043d\u0430, \u0421\u043e\u0444\u0438\u044f-\u0433\u0440\u0430\u0434, 1632, \u0411\u044a\u043b\u0433\u0430\u0440\u0438\u044f",
    "query_used": "\u0443\u043b.\u041f\u0440\u0435\u0437\u0438\u0434\u0435\u043d\u0442 \u041b\u0438\u043d\u043a\u044a\u043b\u043d, Bulgaria"
  },
  "\u043d\u0430\u0434\u0435\u0436\u0434\u0430 2|\u041d\u0430\u0434\u0435\u0436\u0434\u0430 2": {
    "lat": 42.7280736,
    "lon": 23.3008869,
    "display_name": "\u041d\u0430\u0434\u0435\u0436\u0434\u0430, \u0431\u0443\u043b. \u041b\u043e\u043c\u0441\u043a\u043e \u0448\u043e\u0441\u0435, \u0436.\u043a. \u041d\u0430\u0434\u0435\u0436\u0434\u0430 2, \u0421\u043e\u0444\u0438\u044f, \u041d\u0430\u0434\u0435\u0436\u0434\u0430, \u0421\u0442\u043e\u043b\u0438\u0447\u043d\u0430, \u0421\u043e\u0444\u0438\u044f-\u0433\u0440\u0430\u0434, 1387, \u0411\u044a\u043b\u0433\u0430\u0440\u0438\u044f",
    "query_used": "\u041d\u0430\u0434\u0435\u0436\u0434\u0430 2, \u041d\u0430\u0434\u0435\u0436\u0434\u0430 2, Bulgaria"
  },
  "\u043c\u043b\u0430\u0434\u043e\u0441\u0442 4|\u041c\u043b\u0430\u0434\u043e\u0441\u0442 4": {
    "lat": 42.6288436,
    "lon": 23.37454,
    "display_name": "\u0421\u044a\u043d\u0444\u0443\u0434\u0441 \u0411\u044a\u043b\u0433\u0430\u0440\u0438\u044f, \u0414-\u0440 \u0410\u0442\u0430\u043d\u0430\u0441 \u041c\u043e\u0441\u043a\u043e\u0432, \u0436.\u043a. \u041c\u043b\u0430\u0434\u043e\u0441\u0442 4, \u0421\u043e\u0444\u0438\u044f, \u041c\u043b\u0430\u0434\u043e\u0441\u0442, \u0421\u0442\u043e\u043b\u0438\u0447\u043d\u0430, \u0421\u043e\u0444\u0438\u044f-\u0433\u0440\u0430\u0434, 1766, \u0411\u044a\u043b\u0433\u0430\u0440\u0438\u044f",
    "query_used": "\u041c\u043b\u0430\u0434\u043e\u0441\u0442 4, \u041c\u043b\u0430\u0434\u043e\u0441\u0442 4, Bulgaria"
  },
  "\u043e\u0431\u0435\u043b\u044f 2|\u0412\u0440\u044a\u0431\u043d\u0438\u0446\u0430 1": {
    "lat": 42.7403351,
    "lon": 23.2756203,
    "display_name": "\u0436.\u043a. \u041e\u0431\u0435\u043b\u044f I, \u0431\u0443\u043b. \u041f\u0430\u043d\u0447\u043e \u0412\u043b\u0430\u0434\u0438\u0433\u0435\u0440\u043e\u0432, \u0436.\u043a. \u041e\u0431\u0435\u043b\u044f 1, \u0421\u043e\u0444\u0438\u044f, \u0412\u0440\u044a\u0431\u043d\u0438\u0446\u0430, \u0421\u0442\u043e\u043b\u0438\u0447\u043d\u0430, \u0421\u043e\u0444\u0438\u044f-\u0433\u0440\u0430\u0434, 1326, \u0411\u044a\u043b\u0433\u0430\u0440\u0438\u044f",
    "query_used": "\u041e\u0431\u0435\u043b\u044f 2, \u0412\u0440\u044a\u0431\u043d\u0438\u0446\u0430 1, Bulgaria"
  },
  "\u0431\u0443\u043b. \u043d\u0438\u043a\u043e\u043b\u0430 \u043f\u0435\u0442\u043a\u043e\u0432|\u041e\u0432\u0447\u0430 \u043a\u0443\u043f\u0435\u043b": {
    "lat": 42.6698352,
    "lon": 23.2542607,
    "display_name": "\u0431\u0443\u043b. \u041d\u0438\u043a\u043e\u043b\u0430 \u041f\u0435\u0442\u043a\u043e\u0432, \u043a\u0432. \u041e\u0432\u0447\u0430 \u043a\u0443\u043f\u0435\u043b, \u0421\u043e\u0444\u0438\u044f, \u041e\u0432\u0447\u0430 \u043a\u0443\u043f\u0435\u043b, \u0421\u0442\u043e\u043b\u0438\u0447\u043d\u0430, \u0421\u043e\u0444\u0438\u044f-\u0433\u0440\u0430\u0434, 1619, \u0411\u044a\u043b\u0433\u0430\u0440\u0438\u044f",
    "query_used": "\u0431\u0443\u043b. \u041d\u0438\u043a\u043e\u043b\u0430 \u041f\u0435\u0442\u043a\u043e\u0432, \u041e\u0432\u0447\u0430 \u043a\u0443\u043f\u0435\u043b, Bulgaria"
  },
  "8 \u0434\u043a\u0446|\u041d\u0430\u0434\u0435\u0436\u0434\u0430 1": {
    "lat": 42.7302282,
    "lon": 23.2937853,
    "display_name": "8-\u043c\u0438 \u0414\u041a\u0426, \u0425\u0440\u0438\u0441\u0442\u043e \u0421\u0438\u043b\u044f\u043d\u043e\u0432, \u0436.\u043a. \u041d\u0430\u0434\u0435\u0436\u0434\u0430 1, \u0421\u043e\u0444\u0438\u044f, \u041d\u0430\u0434\u0435\u0436\u0434\u0430, \u0421\u0442\u043e\u043b\u0438\u0447\u043d\u0430, \u0421\u043e\u0444\u0438\u044f-\u0433\u0440\u0430\u0434, 1387, \u0411\u044a\u043b\u0433\u0430\u0440\u0438\u044f",
    "query_used": "8 \u0414\u041a\u0426, \u041d\u0430\u0434\u0435\u0436\u0434\u0430 1, Bulgaria"
  },
  "\u043e\u0432\u0447\u0430 \u043a\u0443\u043f\u0435\u043b 1|\u041e\u0432\u0447\u0430 \u043a\u0443\u043f\u0435\u043b": {
    "lat": 42.6828931,
    "lon": 23.2490811,
    "display_name": "\u0431\u043b. 1, \u0436.\u043a. \u041e\u0432\u0447\u0430 \u043a\u0443\u043f\u0435\u043b 2, \u0436.\u043a. \u041e\u0432\u0447\u0430 \u043a\u0443\u043f\u0435\u043b, \u0421\u043e\u0444\u0438\u044f, \u041e\u0432\u0447\u0430 \u043a\u0443\u043f\u0435\u043b, \u0421\u0442\u043e\u043b\u0438\u0447\u043d\u0430, \u0421\u043e\u0444\u0438\u044f-\u0433\u0440\u0430\u0434, 1632, \u0411\u044a\u043b\u0433\u0430\u0440\u0438\u044f",
    "query_used": "\u041e\u0432\u0447\u0430 \u043a\u0443\u043f\u0435\u043b 1, \u041e\u0432\u0447\u0430 \u043a\u0443\u043f\u0435\u043b, Bulgaria"
  },
  "\u043e\u0432\u0447\u0430 \u043a\u0443\u043f\u0435\u043b 2|\u041e\u0432\u0447\u0430 \u043a\u0443\u043f\u0435\u043b": {
    "lat": 42.6816089,
    "lon": 23.2469064,
    "display_name": "\u0431\u043b. 2, \u0436.\u043a. \u041e\u0432\u0447\u0430 \u043a\u0443\u043f\u0435\u043b, \u0421\u043e\u0444\u0438\u044f, \u041e\u0432\u0447\u0430 \u043a\u0443\u043f\u0435\u043b, \u0421\u0442\u043e\u043b\u0438\u0447\u043d\u0430, \u0421\u043e\u0444\u0438\u044f-\u0433\u0440\u0430\u0434, 1632, \u0411\u044a\u043b\u0433\u0430\u0440\u0438\u044f",
    "query_used": "\u041e\u0432\u0447\u0430 \u043a\u0443\u043f\u0435\u043b 2, \u041e\u0432\u0447\u0430 \u043a\u0443\u043f\u0435\u043b, Bulgaria"
  },
  "\u043c\u0435\u0442\u0440\u043e\u0441\u0442\u0430\u043d\u0446\u0438\u044f \u043c\u0438\u0437\u0438\u044f|\u041e\u0432\u0447\u0430 \u043a\u0443\u043f\u0435\u043b 1": {
    "lat": 42.6830312,
    "lon": 23.2558424,
    "display_name": "\u041c\u0435\u0442\u0440\u043e\u0441\u0442\u0430\u043d\u0446\u0438\u044f \u041c\u0438\u0437\u0438\u044f, \u041c\u043e\u043d\u0442\u0435\u0432\u0438\u0434\u0435\u043e, \u043a\u0432. \u041e\u0432\u0447\u0430 \u043a\u0443\u043f\u0435\u043b, \u0421\u043e\u0444\u0438\u044f, \u041e\u0432\u0447\u0430 \u043a\u0443\u043f\u0435\u043b, \u0421\u0442\u043e\u043b\u0438\u0447\u043d\u0430, \u0421\u043e\u0444\u0438\u044f-\u0433\u0440\u0430\u0434, 1632, \u0411\u044a\u043b\u0433\u0430\u0440\u0438\u044f",
    "query_used": "\u041c\u0435\u0442\u0440\u043e\u0441\u0442\u0430\u043d\u0446\u0438\u044f \u041c\u0438\u0437\u0438\u044f, Bulgaria"
  },
  "\u043e\u0432\u0447\u0430 \u043a\u0443\u043f\u0435\u043b|\u041b\u044e\u043b\u0438\u043d 5": {
    "lat": 42.6774732,
    "lon": 23.2052117,
    "display_name": "\u041e\u0432\u0447\u0430 \u043a\u0443\u043f\u0435\u043b, \u0421\u0442\u043e\u043b\u0438\u0447\u043d\u0430, \u0421\u043e\u0444\u0438\u044f-\u0433\u0440\u0430\u0434, \u0411\u044a\u043b\u0433\u0430\u0440\u0438\u044f",
    "query_used": "\u041e\u0432\u0447\u0430 \u043a\u0443\u043f\u0435\u043b, Bulgaria"
  },
  "\u0441\u0442\u0443\u0434\u0435\u043d\u0442\u0441\u043a\u0438 \u0433\u0440\u0430\u0434|\u0421\u0442\u0443\u0434\u0435\u043d\u0442\u0441\u043a\u0438 \u0433\u0440\u0430\u0434": {
    "lat": 42.6465944,
    "lon": 23.346084,
    "display_name": "\u0421\u0442\u0443\u0434\u0435\u043d\u0442\u0441\u043a\u0438 \u0433\u0440\u0430\u0434, \u041f\u0440\u043e\u0444. \u0410\u0442\u0430\u043d\u0430\u0441 \u0418\u0448\u0438\u0440\u043a\u043e\u0432, \u0436.\u043a. \u0421\u0442\u0443\u0434\u0435\u043d\u0442\u0441\u043a\u0438 \u0433\u0440\u0430\u0434, \u0421\u043e\u0444\u0438\u044f, \u0421\u0442\u0443\u0434\u0435\u043d\u0442\u0441\u043a\u0438, \u0421\u0442\u043e\u043b\u0438\u0447\u043d\u0430, \u0421\u043e\u0444\u0438\u044f-\u0433\u0440\u0430\u0434, 1734, \u0411\u044a\u043b\u0433\u0430\u0440\u0438\u044f",
    "query_used": "\u0421\u0442\u0443\u0434\u0435\u043d\u0442\u0441\u043a\u0438 \u0433\u0440\u0430\u0434, \u0421\u0442\u0443\u0434\u0435\u043d\u0442\u0441\u043a\u0438 \u0433\u0440\u0430\u0434, Bulgaria"
  },
  "ovcha kupel|\u041e\u0432\u0447\u0430 \u043a\u0443\u043f\u0435\u043b": {
    "lat": 42.6778469,
    "lon": 23.2622161,
    "display_name": "\u043a\u0432. \u041e\u0432\u0447\u0430 \u043a\u0443\u043f\u0435\u043b, \u0421\u043e\u0444\u0438\u044f, \u041e\u0432\u0447\u0430 \u043a\u0443\u043f\u0435\u043b, \u0421\u0442\u043e\u043b\u0438\u0447\u043d\u0430, \u0421\u043e\u0444\u0438\u044f-\u0433\u0440\u0430\u0434, \u0411\u044a\u043b\u0433\u0430\u0440\u0438\u044f",
    "query_used": "Ovcha Kupel, \u041e\u0432\u0447\u0430 \u043a\u0443\u043f\u0435\u043b, Bulgaria"
  },
  "\u043c\u0435\u0442\u0440\u043e\u0441\u0442\u0430\u043d\u0446\u0438\u044f \u0431\u0435\u043b\u0438 \u0434\u0443\u043d\u0430\u0432|\u041d\u0430\u0434\u0435\u0436\u0434\u0430 3": {
    "lat": 42.734726,
    "lon": 23.2935952,
    "display_name": "\u041c\u0435\u0442\u0440\u043e\u0441\u0442\u0430\u043d\u0446\u0438\u044f \u0411\u0435\u043b\u0438 \u0414\u0443\u043d\u0430\u0432, \u0431\u0443\u043b. \u041b\u043e\u043c\u0441\u043a\u043e \u0448\u043e\u0441\u0435, \u0436.\u043a. \u041d\u0430\u0434\u0435\u0436\u0434\u0430 3, \u0421\u043e\u0444\u0438\u044f, \u041d\u0430\u0434\u0435\u0436\u0434\u0430, \u0421\u0442\u043e\u043b\u0438\u0447\u043d\u0430, \u0421\u043e\u0444\u0438\u044f-\u0433\u0440\u0430\u0434, 1387, \u0411\u044a\u043b\u0433\u0430\u0440\u0438\u044f",
    "query_used": "\u043c\u0435\u0442\u0440\u043e\u0441\u0442\u0430\u043d\u0446\u0438\u044f \u0411\u0435\u043b\u0438 \u0414\u0443\u043d\u0430\u0432, \u041d\u0430\u0434\u0435\u0436\u0434\u0430 3, Bulgaria"
  },
  "\u0441\u0443\u0445\u0430\u0442\u0430 \u0440\u0435\u043a\u0430|\u0421\u0443\u0445\u0430\u0442\u0430 \u0440\u0435\u043a\u0430": {
    "lat": 42.7074299,
    "lon": 23.3664491,
    "display_name": "\u0412\u041e\u0426 \u0421\u0443\u0445\u0430\u0442\u0430 \u0440\u0435\u043a\u0430, \u0436.\u043a. \u0421\u0443\u0445\u0430\u0442\u0430 \u0440\u0435\u043a\u0430, \u0421\u043e\u0444\u0438\u044f, \u041f\u043e\u0434\u0443\u044f\u043d\u0435, \u0421\u0442\u043e\u043b\u0438\u0447\u043d\u0430, \u0421\u043e\u0444\u0438\u044f-\u0433\u0440\u0430\u0434, \u0411\u044a\u043b\u0433\u0430\u0440\u0438\u044f",
    "query_used": "\u0421\u0443\u0445\u0430\u0442\u0430 \u0440\u0435\u043a\u0430, \u0421\u0443\u0445\u0430\u0442\u0430 \u0440\u0435\u043a\u0430, Bulgaria"
  },
  "\u0440\u0443\u0441\u043a\u0438 \u043f\u0430\u043c\u0435\u0442\u043d\u0438\u043a|\u0414\u043e\u0431\u0440\u0443\u0434\u0436\u0430\u043d\u0441\u043a\u0438": {
    "lat": 43.2712939,
    "lon": 26.9352058,
    "display_name": "\u0420\u0443\u0441\u043a\u0438 \u043f\u0430\u043c\u0435\u0442\u043d\u0438\u043a, \u0431\u0443\u043b. \u0421\u043b\u0430\u0432\u044f\u043d\u0441\u043a\u0438, \u0436.\u043a. \u0425\u0435\u0440\u0441\u043e\u043d, \u0428\u0443\u043c\u0435\u043d, 9700, \u0411\u044a\u043b\u0433\u0430\u0440\u0438\u044f",
    "query_used": "\u0420\u0443\u0441\u043a\u0438 \u043f\u0430\u043c\u0435\u0442\u043d\u0438\u043a, \u0414\u043e\u0431\u0440\u0443\u0434\u0436\u0430\u043d\u0441\u043a\u0438, Bulgaria"
  },
  "\u0440\u0435\u0434\u0443\u0442\u0430|\u0420\u0435\u0434\u0443\u0442\u0430": {
    "lat": 42.6896572,
    "lon": 23.3640726,
    "display_name": "\u0420\u0435\u0434\u0443\u0442\u0430, \u0410\u0442\u0430\u043d\u0430\u0441 \u0423\u0437\u0443\u043d\u043e\u0432, \u043a\u0432. \u041f\u043e\u0434\u0443\u044f\u043d\u0435, \u0421\u043e\u0444\u0438\u044f, \u0421\u043b\u0430\u0442\u0438\u043d\u0430, \u0421\u0442\u043e\u043b\u0438\u0447\u043d\u0430, \u0421\u043e\u0444\u0438\u044f-\u0433\u0440\u0430\u0434, 1111, \u0411\u044a\u043b\u0433\u0430\u0440\u0438\u044f",
    "query_used": "\u0420\u0435\u0434\u0443\u0442\u0430, \u0420\u0435\u0434\u0443\u0442\u0430, Bulgaria"
  },
  "\u0431\u0443\u043b. \u0442\u043e\u0434\u043e\u0440 \u0430\u043b\u0435\u043a\u0441\u0430\u043d\u0434\u0440\u043e\u0432|\u0426\u0435\u043d\u0442\u044a\u0440": {
    "lat": 42.6977271,
    "lon": 23.321755,
    "display_name": "\u0431\u0443\u043b. \u0422\u043e\u0434\u043e\u0440 \u0410\u043b\u0435\u043a\u0441\u0430\u043d\u0434\u0440\u043e\u0432, \u0426\u0435\u043d\u0442\u044a\u0440, \u0421\u043e\u0444\u0438\u044f, \u041e\u0431\u043e\u0440\u0438\u0449\u0435, \u0421\u0442\u043e\u043b\u0438\u0447\u043d\u0430, \u0421\u043e\u0444\u0438\u044f-\u0433\u0440\u0430\u0434, 1000, \u0411\u044a\u043b\u0433\u0430\u0440\u0438\u044f",
    "query_used": "\u0431\u0443\u043b. \u0422\u043e\u0434\u043e\u0440 \u0410\u043b\u0435\u043a\u0441\u0430\u043d\u0434\u0440\u043e\u0432, \u0426\u0435\u043d\u0442\u044a\u0440, Bulgaria"
  },
  "capitol residence|\u0411\u0430\u043d\u0438\u0448\u043e\u0440\u0430": {
    "lat": 42.7141884,
    "lon": 23.3253696,
    "display_name": "Capitol Residence, \u0422\u0415\u0426 \u0421\u043e\u0444\u0438\u044f, \u0421\u043e\u0444\u0438\u044f, \u0421\u0435\u0440\u0434\u0438\u043a\u0430, \u0421\u0442\u043e\u043b\u0438\u0447\u043d\u0430, \u0421\u043e\u0444\u0438\u044f-\u0433\u0440\u0430\u0434, \u0411\u044a\u043b\u0433\u0430\u0440\u0438\u044f",
    "query_used": "Capitol Residence, Bulgaria"
  },
  "\u0431\u0443\u043b. \u0432\u0438\u0442\u043e\u0448\u0430|\u0426\u0435\u043d\u0442\u044a\u0440": {
    "lat": 42.6900258,
    "lon": 23.3193299,
    "display_name": "\u0431\u0443\u043b. \u0412\u0438\u0442\u043e\u0448\u0430, \u0426\u0435\u043d\u0442\u044a\u0440, \u0421\u043e\u0444\u0438\u044f, \u0422\u0440\u0438\u0430\u0434\u0438\u0446\u0430, \u0421\u0442\u043e\u043b\u0438\u0447\u043d\u0430, \u0421\u043e\u0444\u0438\u044f-\u0433\u0440\u0430\u0434, 1000, \u0411\u044a\u043b\u0433\u0430\u0440\u0438\u044f",
    "query_used": "\u0431\u0443\u043b. \u0412\u0438\u0442\u043e\u0448\u0430, \u0426\u0435\u043d\u0442\u044a\u0440, Bulgaria"
  },
  "\u0441\u043b\u0430\u0442\u0438\u043d\u0430|\u0421\u043b\u0430\u0442\u0438\u043d\u0430": {
    "lat": 42.6809804,
    "lon": 23.3740454,
    "display_name": "\u0421\u043b\u0430\u0442\u0438\u043d\u0430, \u0413\u0435\u043e \u041c\u0438\u043b\u0435\u0432, \u0436.\u043a. \u0425\u0440\u0438\u0441\u0442\u043e \u0421\u043c\u0438\u0440\u043d\u0435\u043d\u0441\u043a\u0438, \u0421\u043e\u0444\u0438\u044f, \u0421\u043b\u0430\u0442\u0438\u043d\u0430, \u0421\u0442\u043e\u043b\u0438\u0447\u043d\u0430, \u0421\u043e\u0444\u0438\u044f-\u0433\u0440\u0430\u0434, 1574, \u0411\u044a\u043b\u0433\u0430\u0440\u0438\u044f",
    "query_used": "\u0421\u043b\u0430\u0442\u0438\u043d\u0430, \u0421\u043b\u0430\u0442\u0438\u043d\u0430, Bulgaria"
  },
  "\u0431\u0443\u043b. \u043c\u0430\u0440\u0438\u044f \u043b\u0443\u0438\u0437\u0430 126|\u0411\u0430\u043d\u0438\u0448\u043e\u0440\u0430": {
    "lat": 42.7140939,
    "lon": 23.3127975,
    "display_name": "\u0431\u0443\u043b. \u041a\u043d\u044f\u0433\u0438\u043d\u044f \u041c\u0430\u0440\u0438\u044f \u041b\u0443\u0438\u0437\u0430, \u0436.\u043a. \u0411\u0430\u043d\u0438\u0448\u043e\u0440\u0430, \u0421\u043e\u0444\u0438\u044f, \u0421\u0435\u0440\u0434\u0438\u043a\u0430, \u0421\u0442\u043e\u043b\u0438\u0447\u043d\u0430, \u0421\u043e\u0444\u0438\u044f-\u0433\u0440\u0430\u0434, 1233, \u0411\u044a\u043b\u0433\u0430\u0440\u0438\u044f",
    "query_used": "\u0431\u0443\u043b. \u041c\u0430\u0440\u0438\u044f \u041b\u0443\u0438\u0437\u0430 126, \u0411\u0430\u043d\u0438\u0448\u043e\u0440\u0430, Bulgaria"
  },
  "\u0446\u0435\u043d\u0442\u044a\u0440|\u0414\u043e\u0431\u0440\u0443\u0434\u0436\u0430\u043d\u0441\u043a\u0438": {
    "lat": 42.69679,
    "lon": 23.3208549,
    "display_name": "\u0426\u0435\u043d\u0442\u044a\u0440, \u0421\u043e\u0444\u0438\u044f, \u0421\u0440\u0435\u0434\u0435\u0446, \u0421\u0442\u043e\u043b\u0438\u0447\u043d\u0430, \u0421\u043e\u0444\u0438\u044f-\u0433\u0440\u0430\u0434, \u0411\u044a\u043b\u0433\u0430\u0440\u0438\u044f",
    "query_used": "\u0426\u0435\u043d\u0442\u044a\u0440, Bulgaria"
  },
  "\u0441\u0435\u043d\u0442\u0440\u0430\u043b \u043f\u0430\u0440\u043a|\u0411\u0430\u043d\u0438\u0448\u043e\u0440\u0430": {
    "lat": 42.7119785,
    "lon": 23.3053713,
    "display_name": "\u0421\u0435\u043d\u0442\u0440\u0430\u043b \u043f\u0430\u0440\u043a \u0421\u043e\u0444\u0438\u044f, 3, \u0436.\u043a. \u0411\u0430\u043d\u0438\u0448\u043e\u0440\u0430, \u0421\u043e\u0444\u0438\u044f, \u0421\u0435\u0440\u0434\u0438\u043a\u0430, \u0421\u0442\u043e\u043b\u0438\u0447\u043d\u0430, \u0421\u043e\u0444\u0438\u044f-\u0433\u0440\u0430\u0434, 1233, \u0411\u044a\u043b\u0433\u0430\u0440\u0438\u044f",
    "query_used": "\u0421\u0435\u043d\u0442\u0440\u0430\u043b \u041f\u0430\u0440\u043a, \u0411\u0430\u043d\u0438\u0448\u043e\u0440\u0430, Bulgaria"
  },
  "\u0443\u043b. '\u0433\u0440\u0430\u0444 \u0438\u0433\u043d\u0430\u0442\u0438\u0435\u0432'|\u0426\u0435\u043d\u0442\u044a\u0440": {
    "lat": 42.6864736,
    "lon": 23.3301812,
    "display_name": "\u0443\u043b. \u0413\u0440\u0430\u0444 \u0418\u0433\u043d\u0430\u0442\u0438\u0435\u0432, \u0431\u0443\u043b. \u0415\u0432\u043b\u043e\u0433\u0438 \u0438 \u0425\u0440\u0438\u0441\u0442\u043e \u0413\u0435\u043e\u0440\u0433\u0438\u0435\u0432\u0438, \u0426\u0435\u043d\u0442\u044a\u0440, \u0421\u043e\u0444\u0438\u044f, \u0421\u0440\u0435\u0434\u0435\u0446, \u0421\u0442\u043e\u043b\u0438\u0447\u043d\u0430, \u0421\u043e\u0444\u0438\u044f-\u0433\u0440\u0430\u0434, 1040, \u0411\u044a\u043b\u0433\u0430\u0440\u0438\u044f",
    "query_used": "\u0443\u043b. '\u0413\u0440\u0430\u0444 \u0418\u0433\u043d\u0430\u0442\u0438\u0435\u0432', \u0426\u0435\u043d\u0442\u044a\u0440, Bulgaria"
  },
  "\u0440\u0430\u0437\u0441\u0430\u0434\u043d\u0438\u043a\u0430|\u0420\u0430\u0437\u0441\u0430\u0434\u043d\u0438\u043a\u0430": {
    "lat": 42.6966549,
    "lon": 23.290774,
    "display_name": "\u0436.\u043a. \u0420\u0430\u0437\u0441\u0430\u0434\u043d\u0438\u043a \u041a\u043e\u043d\u044c\u043e\u0432\u0438\u0446\u0430, \u0421\u043e\u0444\u0438\u044f, \u041a\u0440\u0430\u0441\u043d\u0430 \u043f\u043e\u043b\u044f\u043d\u0430, \u0421\u0442\u043e\u043b\u0438\u0447\u043d\u0430, \u0421\u043e\u0444\u0438\u044f-\u0433\u0440\u0430\u0434, \u0411\u044a\u043b\u0433\u0430\u0440\u0438\u044f",
    "query_used": "\u0420\u0430\u0437\u0441\u0430\u0434\u043d\u0438\u043a\u0430, Bulgaria"
  },
  "central park|\u0411\u0430\u043d\u0438\u0448\u043e\u0440\u0430": {
    "lat": 42.7119785,
    "lon": 23.3053713,
    "display_name": "\u0421\u0435\u043d\u0442\u0440\u0430\u043b \u043f\u0430\u0440\u043a \u0421\u043e\u0444\u0438\u044f, 3, \u0436.\u043a. \u0411\u0430\u043d\u0438\u0448\u043e\u0440\u0430, \u0421\u043e\u0444\u0438\u044f, \u0421\u0435\u0440\u0434\u0438\u043a\u0430, \u0421\u0442\u043e\u043b\u0438\u0447\u043d\u0430, \u0421\u043e\u0444\u0438\u044f-\u0433\u0440\u0430\u0434, 1233, \u0411\u044a\u043b\u0433\u0430\u0440\u0438\u044f",
    "query_used": "Central Park, \u0411\u0430\u043d\u0438\u0448\u043e\u0440\u0430, Bulgaria"
  },
  "\u0431\u043e\u0440\u043e\u0432\u043e|\u0411\u043e\u0440\u043e\u0432\u043e": {
    "lat": 43.4883438,
    "lon": 25.8089088,
    "display_name": "\u0411\u043e\u0440\u043e\u0432\u043e, \u0420\u0443\u0441\u0435, \u0411\u044a\u043b\u0433\u0430\u0440\u0438\u044f",
    "query_used": "\u0411\u043e\u0440\u043e\u0432\u043e, \u0411\u043e\u0440\u043e\u0432\u043e, Bulgaria"
  },
  "\u043c\u0435\u0442\u0440\u043e\u0441\u0442\u0430\u043d\u0446\u0438\u044f '\u043a\u043d\u044f\u0433\u0438\u043d\u044f \u043c\u0430\u0440\u0438\u044f \u043b\u0443\u0438\u0437\u0430'|\u0411\u0430\u043d\u0438\u0448\u043e\u0440\u0430": {
    "lat": 42.7138672,
    "lon": 23.3130793,
    "display_name": "\u041c\u0435\u0442\u0440\u043e\u0441\u0442\u0430\u043d\u0446\u0438\u044f \u041a\u043d\u044f\u0433\u0438\u043d\u044f \u041c\u0430\u0440\u0438\u044f \u041b\u0443\u0438\u0437\u0430, Vishovgrad, \u0436.\u043a. \u0411\u0430\u043d\u0438\u0448\u043e\u0440\u0430, \u0421\u043e\u0444\u0438\u044f, \u0421\u0435\u0440\u0434\u0438\u043a\u0430, \u0421\u0442\u043e\u043b\u0438\u0447\u043d\u0430, \u0421\u043e\u0444\u0438\u044f-\u0433\u0440\u0430\u0434, 1233, \u0411\u044a\u043b\u0433\u0430\u0440\u0438\u044f",
    "query_used": "\u043c\u0435\u0442\u0440\u043e\u0441\u0442\u0430\u043d\u0446\u0438\u044f '\u041a\u043d\u044f\u0433\u0438\u043d\u044f \u041c\u0430\u0440\u0438\u044f \u041b\u0443\u0438\u0437\u0430', \u0411\u0430\u043d\u0438\u0448\u043e\u0440\u0430, Bulgaria"
  },
  "borovo|\u0411\u043e\u0440\u043e\u0432\u043e": {
    "lat": 43.4883438,
    "lon": 25.8089088,
    "display_name": "\u0411\u043e\u0440\u043e\u0432\u043e, \u0420\u0443\u0441\u0435, \u0411\u044a\u043b\u0433\u0430\u0440\u0438\u044f",
    "query_used": "Borovo, \u0411\u043e\u0440\u043e\u0432\u043e, Bulgaria"
  },
  "\u0431\u0443\u043b.\u0431\u044a\u043b\u0433\u0430\u0440\u0438\u044f|\u0411\u043e\u0440\u043e\u0432\u043e": {
    "lat": 42.6714581,
    "lon": 23.294063,
    "display_name": "\u0431\u0443\u043b. \u0411\u044a\u043b\u0433\u0430\u0440\u0438\u044f, \u0436.\u043a. \u0413\u043e\u0446\u0435 \u0414\u0435\u043b\u0447\u0435\u0432, \u0421\u043e\u0444\u0438\u044f, \u0422\u0440\u0438\u0430\u0434\u0438\u0446\u0430, \u0421\u0442\u043e\u043b\u0438\u0447\u043d\u0430, \u0421\u043e\u0444\u0438\u044f-\u0433\u0440\u0430\u0434, 1680, \u0411\u044a\u043b\u0433\u0430\u0440\u0438\u044f",
    "query_used": "\u0431\u0443\u043b.\u0411\u044a\u043b\u0433\u0430\u0440\u0438\u044f, \u0411\u043e\u0440\u043e\u0432\u043e, Bulgaria"
  },
  "\u0431\u0435\u043b\u0438\u0442\u0435 \u0431\u0440\u0435\u0437\u0438|\u0411\u0435\u043b\u0438\u0442\u0435 \u0431\u0440\u0435\u0437\u0438": {
    "lat": 42.6774558,
    "lon": 23.2910815,
    "display_name": "\u0411\u0435\u043b\u0438\u0442\u0435 \u0431\u0440\u0435\u0437\u0438, \u0421\u043c\u044a\u0440\u0447, \u0436.\u043a. \u0411\u0435\u043b\u0438\u0442\u0435 \u0431\u0440\u0435\u0437\u0438, \u0421\u043e\u0444\u0438\u044f, \u041a\u0440\u0430\u0441\u043d\u043e \u0441\u0435\u043b\u043e, \u0421\u0442\u043e\u043b\u0438\u0447\u043d\u0430, \u0421\u043e\u0444\u0438\u044f-\u0433\u0440\u0430\u0434, 1620, \u0411\u044a\u043b\u0433\u0430\u0440\u0438\u044f",
    "query_used": "\u0411\u0435\u043b\u0438\u0442\u0435 \u0431\u0440\u0435\u0437\u0438, \u0411\u0435\u043b\u0438\u0442\u0435 \u0431\u0440\u0435\u0437\u0438, Bulgaria"
  },
  "\u0431\u043e\u043a\u0430\u0440|\u041c\u0430\u043d\u0430\u0441\u0442\u0438\u0440\u0441\u043a\u0438 \u043b\u0438\u0432\u0430\u0434\u0438": {
    "lat": 42.6598136,
    "lon": 23.2852969,
    "display_name": "\u0436.\u043a. \u0411\u043e\u043a\u0430\u0440, \u0431\u0443\u043b. \u0411\u044a\u043b\u0433\u0430\u0440\u0438\u044f, \u043a\u0432. \u041c\u0430\u043d\u0430\u0441\u0442\u0438\u0440\u0441\u043a\u0438 \u043b\u0438\u0432\u0430\u0434\u0438, \u0421\u043e\u0444\u0438\u044f, \u0412\u0438\u0442\u043e\u0448\u0430, \u0421\u0442\u043e\u043b\u0438\u0447\u043d\u0430, \u0421\u043e\u0444\u0438\u044f-\u0433\u0440\u0430\u0434, 1404, \u0411\u044a\u043b\u0433\u0430\u0440\u0438\u044f",
    "query_used": "\u0411\u043e\u043a\u0430\u0440, \u041c\u0430\u043d\u0430\u0441\u0442\u0438\u0440\u0441\u043a\u0438 \u043b\u0438\u0432\u0430\u0434\u0438, Bulgaria"
  },
  "\u043f\u0430\u0437\u0430\u0440 '\u0431\u043e\u0440\u043e\u0432\u043e'|\u0411\u043e\u0440\u043e\u0432\u043e": {
    "lat": 42.6690927,
    "lon": 23.2792234,
    "display_name": "\u041f\u0430\u0437\u0430\u0440 \u0411\u043e\u0440\u043e\u0432\u043e, \u0413\u0435\u043d. \u0421\u0442\u0435\u0444\u0430\u043d \u0422\u043e\u0448\u0435\u0432, \u0436.\u043a. \u041a\u0440\u0430\u0441\u043d\u043e \u0441\u0435\u043b\u043e, \u0421\u043e\u0444\u0438\u044f, \u041a\u0440\u0430\u0441\u043d\u043e \u0441\u0435\u043b\u043e, \u0421\u0442\u043e\u043b\u0438\u0447\u043d\u0430, \u0421\u043e\u0444\u0438\u044f-\u0433\u0440\u0430\u0434, 1618, \u0411\u044a\u043b\u0433\u0430\u0440\u0438\u044f",
    "query_used": "\u043f\u0430\u0437\u0430\u0440 '\u0411\u043e\u0440\u043e\u0432\u043e', \u0411\u043e\u0440\u043e\u0432\u043e, Bulgaria"
  },
  "36-\u0442\u043e \u0441\u0443|\u0411\u043e\u0440\u043e\u0432\u043e": {
    "lat": 42.6735123,
    "lon": 23.2859669,
    "display_name": "36-\u0442\u043e \u0421\u0423, \u0413\u0435\u043d. \u0421\u0442\u0435\u0444\u0430\u043d \u0422\u043e\u0448\u0435\u0432, \u0436.\u043a. \u041a\u0440\u0430\u0441\u043d\u043e \u0441\u0435\u043b\u043e, \u0421\u043e\u0444\u0438\u044f, \u041a\u0440\u0430\u0441\u043d\u043e \u0441\u0435\u043b\u043e, \u0421\u0442\u043e\u043b\u0438\u0447\u043d\u0430, \u0421\u043e\u0444\u0438\u044f-\u0433\u0440\u0430\u0434, 1680, \u0411\u044a\u043b\u0433\u0430\u0440\u0438\u044f",
    "query_used": "36-\u0442\u043e \u0421\u0423, \u0411\u043e\u0440\u043e\u0432\u043e, Bulgaria"
  },
  "\u043a\u044a\u0440\u0448\u0438\u044f\u043a\u0430|\u0413\u0430\u0433\u0430\u0440\u0438\u043d": {
    "lat": 42.159864,
    "lon": 24.7608986,
    "display_name": "\u0431\u0443\u043b. \u0411\u044a\u043b\u0433\u0430\u0440\u0438\u044f, \u0413\u0430\u0433\u0430\u0440\u0438\u043d, \u0421\u0435\u0432\u0435\u0440\u0435\u043d, \u041f\u043b\u043e\u0432\u0434\u0438\u0432, 4021, \u0411\u044a\u043b\u0433\u0430\u0440\u0438\u044f",
    "query_used": "\u041a\u044a\u0440\u0448\u0438\u044f\u043a\u0430, \u0413\u0430\u0433\u0430\u0440\u0438\u043d, Bulgaria"
  },
  "central park sofia|\u0411\u0430\u043d\u0438\u0448\u043e\u0440\u0430": {
    "lat": 42.7119785,
    "lon": 23.3053713,
    "display_name": "\u0421\u0435\u043d\u0442\u0440\u0430\u043b \u043f\u0430\u0440\u043a \u0421\u043e\u0444\u0438\u044f, 3, \u0436.\u043a. \u0411\u0430\u043d\u0438\u0448\u043e\u0440\u0430, \u0421\u043e\u0444\u0438\u044f, \u0421\u0435\u0440\u0434\u0438\u043a\u0430, \u0421\u0442\u043e\u043b\u0438\u0447\u043d\u0430, \u0421\u043e\u0444\u0438\u044f-\u0433\u0440\u0430\u0434, 1233, \u0411\u044a\u043b\u0433\u0430\u0440\u0438\u044f",
    "query_used": "Central Park Sofia, \u0411\u0430\u043d\u0438\u0448\u043e\u0440\u0430, Bulgaria"
  },
  "ul. nishava|\u0411\u0435\u043b\u0438\u0442\u0435 \u0431\u0440\u0435\u0437\u0438": {
    "lat": 42.6699119,
    "lon": 23.3038668,
    "display_name": "\u0443\u043b. \u041d\u0438\u0448\u0430\u0432\u0430, \u0431\u0443\u043b. \u041f\u0435\u0442\u043a\u043e \u042e. \u0422\u043e\u0434\u043e\u0440\u043e\u0432, \u0436.\u043a. \u0421\u0442\u0440\u0435\u043b\u0431\u0438\u0449\u0435, \u0421\u043e\u0444\u0438\u044f, \u0422\u0440\u0438\u0430\u0434\u0438\u0446\u0430, \u0421\u0442\u043e\u043b\u0438\u0447\u043d\u0430, \u0421\u043e\u0444\u0438\u044f-\u0433\u0440\u0430\u0434, 1408, \u0411\u044a\u043b\u0433\u0430\u0440\u0438\u044f",
    "query_used": "ul. Nishava, Bulgaria"
  },
  "\u0440\u0435\u0437\u0438\u0434\u0435\u043d\u0446\u0438\u044f \u0431\u043e\u044f\u043d\u0430|\u0411\u043e\u044f\u043d\u0430": {
    "lat": 42.6554531,
    "lon": 23.2678257,
    "display_name": "\u0420\u0435\u0437\u0438\u0434\u0435\u043d\u0446\u0438\u044f \u0411\u043e\u044f\u043d\u0430, \u0421\u0438\u043c\u0435\u043e\u043d \u0420\u0430\u0434\u0435\u0432, \u0420\u0435\u0437\u0438\u0434\u0435\u043d\u0446\u0438\u044f \u0411\u043e\u044f\u043d\u0430, \u043c. \u0413\u044a\u0440\u0434\u043e\u0432\u0430 \u0433\u043b\u0430\u0432\u0430, \u0421\u043e\u0444\u0438\u044f, \u0412\u0438\u0442\u043e\u0448\u0430, \u0421\u0442\u043e\u043b\u0438\u0447\u043d\u0430, \u0421\u043e\u0444\u0438\u044f-\u0433\u0440\u0430\u0434, 1618, \u0411\u044a\u043b\u0433\u0430\u0440\u0438\u044f",
    "query_used": "\u0420\u0435\u0437\u0438\u0434\u0435\u043d\u0446\u0438\u044f \u0411\u043e\u044f\u043d\u0430, \u0411\u043e\u044f\u043d\u0430, Bulgaria"
  },